[
    {
        "title": "Hoshinoya Fuji",
        "subtitle": "Luxury glamping resort near Mount Fuji",
        "lat": 35.51866,
        "lon": 138.74738,
        "type": "hotel",
        "class": "tourism",
        "confidence": 0.95,
        "rank": 1,
        "page": 1,
        "hierarchy": [
            "Hoshinoya Fuji",
            "Fujikawaguchiko",
            "Yamanashi Prefecture",
            "Japan"
        ]
    },
    {
        "title": "Aman Tokyo",
        "subtitle": "Luxury hotel in Otemachi Tower, Tokyo",
        "lat": 35.68652,
        "lon": 139.76104,
        "type": "hotel",
        "class": "tourism",
        "confidence": 0.95,
        "rank": 1,
        "page": 2,
        "hierarchy": [
            "Aman Tokyo",
            "Chiyoda City",
            "Tokyo",
            "Japan"
        ]
    },
    {
        "title": "Aman Kyoto",
        "subtitle": "Secluded luxury hotel in Kyoto",
        "lat": 35.05051,
        "lon": 135.73238,
        "type": "hotel",
        "class": "tourism",
        "confidence": 0.95,
        "rank": 1,
        "page": 3,
        "hierarchy": [
            "Aman Kyoto",
            "Kita Ward",
            "Kyoto",
            "Japan"
        ]
    },
    {
        "title": "The Ritz-Carlton Nikko",
        "subtitle": "Luxury hotel overlooking Lake Chuzenji in Nikko",
        "lat": 36.75626,
        "lon": 139.49377,
        "type": "hotel",
        "class": "tourism",
        "confidence": 0.95,
        "rank": 1,
        "page": 4,
        "hierarchy": [
            "The Ritz-Carlton Nikko",
            "Nikko",
            "Tochigi Prefecture",
            "Japan"
        ]
    },
    {
        "title": "Hoshino Resorts Kai Poroto",
        "subtitle": "Hot spring resort on Lake Poroto, Hokkaido",
        "lat": 42.5401,
        "lon": 141.3411,
        "type": "resort",
        "class": "tourism",
        "confidence": 0.95,
        "rank": 1,
        "page": 5,
        "hierarchy": [
            "Hoshino Resorts Kai Poroto",
            "Shiraoi",
            "Hokkaido",
            "Japan"
        ]
    },
    {
        "title": "Shiroiya Hotel",
        "subtitle": "Unique design hotel in Maebashi",
        "lat": 36.39343,
        "lon": 139.06821,
        "type": "hotel",
        "class": "tourism",
        "confidence": 0.95,
        "rank": 1,
        "page": 6,
        "hierarchy": [
            "Shiroiya Hotel",
            "Maebashi",
            "Gunma Prefecture",
            "Japan"
        ]
    },
    {
        "title": "Park Hyatt Niseko",
        "subtitle": "Luxury hotel in Hanazono, Niseko",
        "lat": 42.86872,
        "lon": 140.7844,
        "type": "hotel",
        "class": "tourism",
        "confidence": 0.95,
        "rank": 1,
        "page": 7,
        "hierarchy": [
            "Park Hyatt Niseko",
            "Kutchan",
            "Hokkaido",
            "Japan"
        ]
    },
    {
        "title": "Ace Hotel Kyoto",
        "subtitle": "Stylish hotel in Kyoto's cultural heart",
        "lat": 35.00971,
        "lon": 135.76785,
        "type": "hotel",
        "class": "tourism",
        "confidence": 0.95,
        "rank": 1,
        "page": 8,
        "hierarchy": [
            "Ace Hotel Kyoto",
            "Nakagyo Ward",
            "Kyoto",
            "Japan"
        ]
    },
    {
        "title": "Hoshinoya Kyoto",
        "subtitle": "Traditional riverside ryokan in Arashiyama, Kyoto",
        "lat": 35.01168,
        "lon": 135.67202,
        "type": "ryokan",
        "class": "tourism",
        "confidence": 0.95,
        "rank": 1,
        "page": 9,
        "hierarchy": [
            "Hoshinoya Kyoto",
            "Nishikyo Ward",
            "Kyoto",
            "Japan"
        ]
    },
    {
        "title": "Maana Kiyomizu",
        "subtitle": "Traditional Kyoto townhouse near Kiyomizu-dera Temple",
        "lat": 34.99616,
        "lon": 135.78657,
        "type": "guesthouse",
        "class": "tourism",
        "confidence": 0.95,
        "rank": 1,
        "page": 10,
        "hierarchy": [
            "Maana Kiyomizu",
            "Higashiyama Ward",
            "Kyoto",
            "Japan"
        ]
    },
    {
        "title": "Amanemu",
        "subtitle": "Luxury hot spring resort in Ise-Shima National Park",
        "lat": 34.3314,
        "lon": 136.853,
        "type": "resort",
        "class": "tourism",
        "confidence": 0.95,
        "rank": 1,
        "page": 11,
        "hierarchy": [
            "Amanemu",
            "Shima",
            "Mie Prefecture",
            "Japan"
        ]
    },
    {
        "title": "The Shinmonzen",
        "subtitle": "Luxury boutique hotel in Gion, Kyoto",
        "lat": 35.00392,
        "lon": 135.7766,
        "type": "hotel",
        "class": "tourism",
        "confidence": 0.95,
        "rank": 1,
        "page": 12,
        "hierarchy": [
            "The Shinmonzen",
            "Higashiyama Ward",
            "Kyoto",
            "Japan"
        ]
    }
]