[
    {
        "title": "\u307e\u3093\u307e\u308b",
        "subtitle": "Japanese sweets shop in Oshiage, Tokyo",
        "lat": 35.71077,
        "lon": 139.81424,
        "type": "restaurant",
        "class": "amenity",
        "confidence": 1.0,
        "rank": 1,
        "page": 1
    },
    {
        "title": "\u30cb\u30db\u30f3\u30d0\u30b7\u30d6\u30eb\u30ef\u30ea\u30fc",
        "subtitle": "Craft beer bar near Tokyo Station",
        "lat": 35.68146,
        "lon": 139.76615,
        "type": "restaurant",
        "class": "amenity",
        "confidence": 1.0,
        "rank": 1,
        "page": 2
    },
    {
        "title": "\u767d\u9aed\u306e\u30b7\u30e5\u30fc\u30af\u30ea\u30fc\u30e0\u5de5\u623f",
        "subtitle": "Totoro-themed cream puff shop in Setagaya, Tokyo",
        "lat": 35.66014,
        "lon": 139.66444,
        "type": "cafe",
        "class": "amenity",
        "confidence": 1.0,
        "rank": 1,
        "page": 3
    },
    {
        "title": "\u30ef\u30fc\u30ad\u30f3\u30b0\u30db\u30ea\u30c7\u30fc\u30b3\u30cd\u30af\u30b7\u30e7\u30f3",
        "subtitle": "Cafe in Harajuku, Tokyo",
        "lat": 35.67035,
        "lon": 139.70617,
        "type": "cafe",
        "class": "amenity",
        "confidence": 1.0,
        "rank": 1,
        "page": 4
    },
    {
        "title": "\u3046\u306e\u307e\u3061\u73c8\u7432\u5e97",
        "subtitle": "Cafe in Shibuya, Tokyo",
        "lat": 35.65766,
        "lon": 139.69974,
        "type": "cafe",
        "class": "amenity",
        "confidence": 1.0,
        "rank": 1,
        "page": 5
    },
    {
        "title": "AIMU",
        "subtitle": "Cafe in Koenji, Tokyo",
        "lat": 35.70321,
        "lon": 139.65406,
        "type": "cafe",
        "class": "amenity",
        "confidence": 1.0,
        "rank": 1,
        "page": 6
    },
    {
        "title": "\u30cf\u30ed\u30fc\u30c9\u30fc\u30ca\u30c4",
        "subtitle": "Donut shop in Ikebukuro, Tokyo",
        "lat": 35.72918,
        "lon": 139.71261,
        "type": "cafe",
        "class": "amenity",
        "confidence": 1.0,
        "rank": 1,
        "page": 7
    },
    {
        "title": "arklounge",
        "subtitle": "Bar & restaurant in Shinjuku, Tokyo",
        "lat": 35.69234,
        "lon": 139.70284,
        "type": "restaurant",
        "class": "amenity",
        "confidence": 1.0,
        "rank": 1,
        "page": 8
    }
]