[
    {
        "title": "Gorkhi-Terelj National Park",
        "subtitle": "A protected area and destination for trail runs in Mongolia",
        "lat": 48.093411,
        "lon": 107.502011,
        "type": "national_park",
        "class": "natural",
        "confidence": 0.9,
        "rank": 2,
        "page": null
    },
    {
        "title": "Everest Region",
        "subtitle": "High-altitude trail race region in the Nepalese Himalayas",
        "lat": 27.915065,
        "lon": 86.721217,
        "type": "region",
        "class": "place",
        "confidence": 0.9,
        "rank": 2,
        "page": 1
    },
    {
        "title": "Pacific Coast, Costa Rica",
        "subtitle": "Coastal area in Costa Rica, host to a challenging trail race",
        "lat": 9.5,
        "lon": -84.5,
        "type": "coastline",
        "class": "natural",
        "confidence": 0.9,
        "rank": 2,
        "page": 2
    },
    {
        "title": "Strait of Gibraltar",
        "subtitle": "Intercontinental trail race location between Spain and Morocco",
        "lat": 35.9333,
        "lon": -5.4833,
        "type": "strait",
        "class": "natural",
        "confidence": 0.9,
        "rank": 2,
        "page": 3
    },
    {
        "title": "Sahara Desert, Morocco",
        "subtitle": "Endurance race held in the vast Moroccan Sahara Desert",
        "lat": 29.0,
        "lon": -5.0,
        "type": "desert",
        "class": "natural",
        "confidence": 0.9,
        "rank": 2,
        "page": 4
    },
    {
        "title": "Eiger",
        "subtitle": "Famous mountain in the Bernese Alps, Switzerland",
        "lat": 46.5772,
        "lon": 8.0042,
        "type": "mountain",
        "class": "natural",
        "confidence": 0.95,
        "rank": 1,
        "page": 5
    },
    {
        "title": "Santo Ant\u00e3o Island",
        "subtitle": "Volcanic island in Cape Verde, known for trail running",
        "lat": 17.1,
        "lon": -25.2,
        "type": "island",
        "class": "place",
        "confidence": 0.9,
        "rank": 2,
        "page": 6
    },
    {
        "title": "Lanzarote",
        "subtitle": "Volcanic island in the Canary Islands, Spain",
        "lat": 28.99,
        "lon": -13.63,
        "type": "island",
        "class": "place",
        "confidence": 0.9,
        "rank": 2,
        "page": 7
    }
]