[
    {
        "title": "Campobasso",
        "subtitle": "City in Molise, Italy",
        "lat": 41.5647,
        "lon": 14.6596,
        "type": "city",
        "class": "place",
        "confidence": 0.95,
        "rank": 4,
        "page": 1,
        "hierarchy": [
            "Campobasso",
            "Molise",
            "Italy"
        ]
    },
    {
        "title": "Amalfi Coast",
        "subtitle": "Coastal stretch in Campania, Italy",
        "lat": 40.6341,
        "lon": 14.5828,
        "type": "coastline",
        "class": "natural",
        "confidence": 0.98,
        "rank": 8,
        "page": 2,
        "hierarchy": [
            "Amalfi Coast",
            "Campania",
            "Italy"
        ]
    },
    {
        "title": "Bologna",
        "subtitle": "City in Emilia-Romagna, Italy",
        "lat": 44.4938,
        "lon": 11.3426,
        "type": "city",
        "class": "place",
        "confidence": 0.97,
        "rank": 4,
        "page": 3,
        "hierarchy": [
            "Bologna",
            "Emilia-Romagna",
            "Italy"
        ]
    },
    {
        "title": "Sirmione",
        "subtitle": "Town on Lake Garda, Lombardy, Italy",
        "lat": 45.4921,
        "lon": 10.6056,
        "type": "town",
        "class": "place",
        "confidence": 0.96,
        "rank": 3,
        "page": 4,
        "hierarchy": [
            "Sirmione",
            "Lombardy",
            "Italy"
        ]
    },
    {
        "title": "Venice",
        "subtitle": "City in Veneto, Italy",
        "lat": 45.4371,
        "lon": 12.3325,
        "type": "city",
        "class": "place",
        "confidence": 0.98,
        "rank": 4,
        "page": 5,
        "hierarchy": [
            "Venice",
            "Veneto",
            "Italy"
        ]
    },
    {
        "title": "Assisi",
        "subtitle": "Hilltop town in Umbria, Italy",
        "lat": 43.0708,
        "lon": 12.6179,
        "type": "town",
        "class": "place",
        "confidence": 0.97,
        "rank": 3,
        "page": 6,
        "hierarchy": [
            "Assisi",
            "Umbria",
            "Italy"
        ]
    },
    {
        "title": "Verona",
        "subtitle": "City in Veneto, Italy",
        "lat": 45.4384,
        "lon": 10.9916,
        "type": "city",
        "class": "place",
        "confidence": 0.97,
        "rank": 4,
        "page": 7,
        "hierarchy": [
            "Verona",
            "Veneto",
            "Italy"
        ]
    },
    {
        "title": "Tremosine sul Garda",
        "subtitle": "Municipality in Lombardy, Italy",
        "lat": 45.8306,
        "lon": 10.7495,
        "type": "municipality",
        "class": "place",
        "confidence": 0.96,
        "rank": 3,
        "page": 8,
        "hierarchy": [
            "Tremosine sul Garda",
            "Lombardy",
            "Italy"
        ]
    },
    {
        "title": "Colosseum",
        "subtitle": "Ancient amphitheater in Rome, Italy",
        "lat": 41.8902,
        "lon": 12.4922,
        "type": "historic_building",
        "class": "amenity",
        "confidence": 0.99,
        "rank": 1,
        "page": 9,
        "hierarchy": [
            "Colosseum",
            "Rome",
            "Italy"
        ]
    },
    {
        "title": "Ostuni",
        "subtitle": "City in Apulia, Italy",
        "lat": 40.7303,
        "lon": 17.5755,
        "type": "city",
        "class": "place",
        "confidence": 0.95,
        "rank": 4,
        "page": 10,
        "hierarchy": [
            "Ostuni",
            "Apulia",
            "Italy"
        ]
    }
]