[
    {
        "title": "Na Satta Park",
        "subtitle": "Illumination festival venue in Ratchaburi",
        "lat": 13.5683,
        "lon": 99.8519,
        "type": "park",
        "class": "natural",
        "confidence": 1.0,
        "rank": 1,
        "page": null
    },
    {
        "title": "Thailand",
        "subtitle": "Country in Southeast Asia",
        "lat": 15.87,
        "lon": 100.9925,
        "type": "country",
        "class": "place",
        "confidence": 1.0,
        "rank": 5,
        "page": null
    },
    {
        "title": "Bangkok",
        "subtitle": "Capital city of Thailand",
        "lat": 13.7563,
        "lon": 100.5018,
        "type": "city",
        "class": "place",
        "confidence": 1.0,
        "rank": 3,
        "page": null
    },
    {
        "title": "Ratchaburi",
        "subtitle": "City and province in Thailand",
        "lat": 13.5283,
        "lon": 99.8181,
        "type": "city",
        "class": "place",
        "confidence": 1.0,
        "rank": 3,
        "page": null
    },
    {
        "title": "Krabi",
        "subtitle": "Province and city in southern Thailand",
        "lat": 8.0855,
        "lon": 98.9063,
        "type": "city",
        "class": "place",
        "confidence": 0.8,
        "rank": 3,
        "page": null
    },
    {
        "title": "Asia",
        "subtitle": "World's largest and most populous continent",
        "lat": 34.0479,
        "lon": 100.6197,
        "type": "continent",
        "class": "place",
        "confidence": 1.0,
        "rank": 6,
        "page": null
    }
]