[
    {
        "title": "Arakurayama Sengen Park",
        "subtitle": "Scenic park with Chureito Pagoda and Mount Fuji views.",
        "lat": 35.4983,
        "lon": 138.8058,
        "type": "park",
        "class": "leisure",
        "confidence": 0.95,
        "rank": 2,
        "page": 2,
        "hierarchy": [
            "Arakurayama Sengen Park",
            "Fujiyoshida",
            "Yamanashi Prefecture",
            "Japan"
        ]
    },
    {
        "title": "Oishi Park",
        "subtitle": "Lakeside park offering panoramic views of Mount Fuji and Lake Kawaguchiko.",
        "lat": 35.5303,
        "lon": 138.7618,
        "type": "park",
        "class": "leisure",
        "confidence": 0.95,
        "rank": 2,
        "page": 3,
        "hierarchy": [
            "Oishi Park",
            "Fujikawaguchiko",
            "Yamanashi Prefecture",
            "Japan"
        ]
    },
    {
        "title": "Miyamoto-Ke",
        "subtitle": "Traditional Japanese inn and historical residence in Chichibu.",
        "lat": 35.97587,
        "lon": 138.99596,
        "type": "historic_house",
        "class": "historic",
        "confidence": 0.9,
        "rank": 1,
        "page": 4,
        "hierarchy": [
            "Miyamoto-Ke",
            "Chichibu",
            "Saitama Prefecture",
            "Japan"
        ]
    },
    {
        "title": "Chichibu Muse Park",
        "subtitle": "Large hillside park with gardens, museums, and panoramic views of Chichibu.",
        "lat": 35.987,
        "lon": 139.0601,
        "type": "park",
        "class": "leisure",
        "confidence": 0.95,
        "rank": 2,
        "page": 5,
        "hierarchy": [
            "Chichibu Muse Park",
            "Chichibu",
            "Saitama Prefecture",
            "Japan"
        ]
    },
    {
        "title": "Hasedera Temple",
        "subtitle": "Ancient Buddhist temple with a large Kannon statue and ocean views in Kamakura.",
        "lat": 35.3128,
        "lon": 139.5308,
        "type": "temple",
        "class": "place_of_worship",
        "confidence": 0.95,
        "rank": 1,
        "page": 6,
        "hierarchy": [
            "Hasedera Temple",
            "Kamakura",
            "Kanagawa Prefecture",
            "Japan"
        ]
    },
    {
        "title": "Kishi-Ke",
        "subtitle": "Former Kishi Residence, a historical samurai house in Iruma, Saitama.",
        "lat": 35.80786,
        "lon": 139.40058,
        "type": "historic_house",
        "class": "historic",
        "confidence": 0.9,
        "rank": 1,
        "page": 7,
        "hierarchy": [
            "Kishi-Ke",
            "Iruma",
            "Saitama Prefecture",
            "Japan"
        ]
    },
    {
        "title": "Daifukuji Temple",
        "subtitle": "Cliffside Buddhist temple in Tateyama, known for its unique location.",
        "lat": 34.9806,
        "lon": 139.8139,
        "type": "temple",
        "class": "place_of_worship",
        "confidence": 0.95,
        "rank": 1,
        "page": 8,
        "hierarchy": [
            "Daifukuji Temple",
            "Tateyama",
            "Chiba Prefecture",
            "Japan"
        ]
    },
    {
        "title": "Haraoka Pier",
        "subtitle": "Picturesque wooden pier in Minamiboso, famous for sunset views and a torii gate.",
        "lat": 34.9392,
        "lon": 139.8392,
        "type": "pier",
        "class": "man_made",
        "confidence": 0.95,
        "rank": 1,
        "page": 9,
        "hierarchy": [
            "Haraoka Pier",
            "Minamiboso",
            "Chiba Prefecture",
            "Japan"
        ]
    }
]