[
    {
        "title": "Mount Fuji",
        "subtitle": "Japan's tallest mountain and iconic volcano",
        "lat": 35.3606,
        "lon": 138.7292,
        "type": "volcano",
        "class": "natural",
        "confidence": 1.0,
        "rank": 2,
        "page": null
    },
    {
        "title": "Japan",
        "subtitle": "East Asian island nation",
        "lat": 36.2048,
        "lon": 138.2529,
        "type": "country",
        "class": "place",
        "confidence": 1.0,
        "rank": 7,
        "page": null
    },
    {
        "title": "Tokyo",
        "subtitle": "Capital city of Japan",
        "lat": 35.6895,
        "lon": 139.6917,
        "type": "city",
        "class": "place",
        "confidence": 0.9,
        "rank": 4,
        "page": null
    },
    {
        "title": "Yamanashi Prefecture",
        "subtitle": "Prefecture in the Ch\u016bbu region of Japan",
        "lat": 35.6667,
        "lon": 138.6667,
        "type": "administrative region",
        "class": "place",
        "confidence": 1.0,
        "rank": 6,
        "page": null
    },
    {
        "title": "Lake Kawaguchiko",
        "subtitle": "One of the Fuji Five Lakes, offering views of Mt. Fuji",
        "lat": 35.5167,
        "lon": 138.75,
        "type": "lake",
        "class": "natural",
        "confidence": 1.0,
        "rank": 2,
        "page": null
    }
]