[
    {
        "title": "Daunt Books Marylebone",
        "subtitle": "Historic Edwardian bookshop with a travel-focused selection in Marylebone.",
        "lat": 51.52028,
        "lon": -0.15545,
        "type": "bookshop",
        "class": "amenity",
        "confidence": 0.9,
        "rank": 1,
        "page": 1,
        "hierarchy": [
            "Daunt Books Marylebone",
            "Marylebone",
            "London",
            "England",
            "United Kingdom"
        ]
    },
    {
        "title": "The Royal Exchange",
        "subtitle": "Historic luxury shopping and dining destination in the City of London.",
        "lat": 51.5134,
        "lon": -0.0883,
        "type": "commercial building",
        "class": "amenity",
        "confidence": 0.9,
        "rank": 1,
        "page": 2,
        "hierarchy": [
            "The Royal Exchange",
            "City of London",
            "London",
            "England",
            "United Kingdom"
        ]
    },
    {
        "title": "Millennium Bridge",
        "subtitle": "Pedestrian suspension bridge crossing the River Thames in central London.",
        "lat": 51.5081,
        "lon": -0.098,
        "type": "bridge",
        "class": "waterway",
        "confidence": 0.9,
        "rank": 1,
        "page": 3,
        "hierarchy": [
            "Millennium Bridge",
            "River Thames",
            "London",
            "England",
            "United Kingdom"
        ]
    },
    {
        "title": "The Savoy",
        "subtitle": "Iconic luxury hotel on the Strand, renowned for its afternoon tea.",
        "lat": 51.51,
        "lon": -0.1194,
        "type": "hotel",
        "class": "lodging",
        "confidence": 0.9,
        "rank": 1,
        "page": 4,
        "hierarchy": [
            "The Savoy",
            "Strand",
            "City of Westminster",
            "London",
            "England",
            "United Kingdom"
        ]
    },
    {
        "title": "The Wallace Collection",
        "subtitle": "National museum showcasing fine and decorative arts in Marylebone.",
        "lat": 51.5186,
        "lon": -0.1504,
        "type": "museum",
        "class": "amenity",
        "confidence": 0.9,
        "rank": 1,
        "page": 5,
        "hierarchy": [
            "The Wallace Collection",
            "Marylebone",
            "London",
            "England",
            "United Kingdom"
        ]
    },
    {
        "title": "The Lookout",
        "subtitle": "Free public viewing gallery atop 8 Bishopsgate skyscraper with city views.",
        "lat": 51.5147,
        "lon": -0.0811,
        "type": "viewing platform",
        "class": "tourism",
        "confidence": 0.9,
        "rank": 1,
        "page": 6,
        "hierarchy": [
            "The Lookout",
            "8 Bishopsgate",
            "City of London",
            "London",
            "England",
            "United Kingdom"
        ]
    },
    {
        "title": "AIRE Ancient Baths",
        "subtitle": "Luxury historic thermal spa in central London with various pools.",
        "lat": 51.5132,
        "lon": -0.1186,
        "type": "spa",
        "class": "amenity",
        "confidence": 0.9,
        "rank": 1,
        "page": 7,
        "hierarchy": [
            "AIRE Ancient Baths",
            "Covent Garden",
            "London",
            "England",
            "United Kingdom"
        ]
    },
    {
        "title": "The American Bar",
        "subtitle": "Elegant bar known for cocktails, located inside The Stafford London hotel.",
        "lat": 51.5065,
        "lon": -0.1415,
        "type": "bar",
        "class": "amenity",
        "confidence": 0.9,
        "rank": 1,
        "page": 8,
        "hierarchy": [
            "The American Bar",
            "The Stafford London",
            "St James's",
            "London",
            "England",
            "United Kingdom"
        ]
    },
    {
        "title": "The NoMad London",
        "subtitle": "Stylish luxury hotel and restaurant housed in a former police station.",
        "lat": 51.5137,
        "lon": -0.1205,
        "type": "hotel",
        "class": "lodging",
        "confidence": 0.9,
        "rank": 1,
        "page": 9,
        "hierarchy": [
            "The NoMad London",
            "Covent Garden",
            "London",
            "England",
            "United Kingdom"
        ]
    }
]