[
    {
        "title": "Echizen Daibutsu",
        "subtitle": "Large Buddha statue in Katsuyama, Fukui, Japan",
        "lat": 36.0682,
        "lon": 136.4716,
        "type": "Buddhist temple",
        "class": "amenity",
        "confidence": 0.9,
        "rank": 1,
        "page": 1,
        "hierarchy": [
            "Echizen Daibutsu",
            "Katsuyama",
            "Fukui Prefecture",
            "Japan"
        ]
    },
    {
        "title": "Heisenji Hakusan Shrine",
        "subtitle": "Historic Shinto shrine in Katsuyama, Fukui, Japan",
        "lat": 36.0594,
        "lon": 136.505,
        "type": "Shinto shrine",
        "class": "amenity",
        "confidence": 0.9,
        "rank": 1,
        "page": 2,
        "hierarchy": [
            "Heisenji Hakusan Shrine",
            "Katsuyama",
            "Fukui Prefecture",
            "Japan"
        ]
    },
    {
        "title": "Kosanji Temple",
        "subtitle": "Buddhist temple with a marble garden in Onomichi, Hiroshima",
        "lat": 34.2589,
        "lon": 133.097,
        "type": "Buddhist temple",
        "class": "amenity",
        "confidence": 0.9,
        "rank": 1,
        "page": 3,
        "hierarchy": [
            "Kosanji Temple",
            "Setoda",
            "Onomichi",
            "Hiroshima Prefecture",
            "Japan"
        ]
    },
    {
        "title": "Shinshoji Zen Museum and Gardens",
        "subtitle": "Zen Buddhist temple and garden in Fukuyama, Hiroshima",
        "lat": 34.4538,
        "lon": 133.3039,
        "type": "Buddhist temple",
        "class": "amenity",
        "confidence": 0.9,
        "rank": 1,
        "page": 4,
        "hierarchy": [
            "Shinshoji Zen Museum and Gardens",
            "Fukuyama",
            "Hiroshima Prefecture",
            "Japan"
        ]
    },
    {
        "title": "Bandai-ji Abuto Kannon",
        "subtitle": "Cliffside temple dedicated to Kannon in Fukuyama, Hiroshima",
        "lat": 34.2586,
        "lon": 133.3934,
        "type": "Buddhist temple",
        "class": "amenity",
        "confidence": 0.9,
        "rank": 1,
        "page": 5,
        "hierarchy": [
            "Bandai-ji Abuto Kannon",
            "Fukuyama",
            "Hiroshima Prefecture",
            "Japan"
        ]
    },
    {
        "title": "Hase-dera Temple",
        "subtitle": "Ancient Buddhist temple known for its Kannon statue in Sakurai, Nara",
        "lat": 34.5447,
        "lon": 135.9175,
        "type": "Buddhist temple",
        "class": "amenity",
        "confidence": 0.9,
        "rank": 1,
        "page": 6,
        "hierarchy": [
            "Hase-dera Temple",
            "Sakurai",
            "Nara Prefecture",
            "Japan"
        ]
    },
    {
        "title": "Hozan-ji Temple",
        "subtitle": "Scenic Buddhist temple on Mount Ikoma, Nara, Japan",
        "lat": 34.6853,
        "lon": 135.6881,
        "type": "Buddhist temple",
        "class": "amenity",
        "confidence": 0.9,
        "rank": 1,
        "page": 7,
        "hierarchy": [
            "Hozan-ji Temple",
            "Ikoma",
            "Nara Prefecture",
            "Japan"
        ]
    },
    {
        "title": "Muro-ji Temple",
        "subtitle": "Historic Buddhist temple in Uda, Nara, known for its pagoda",
        "lat": 34.5204,
        "lon": 136.0028,
        "type": "Buddhist temple",
        "class": "amenity",
        "confidence": 0.9,
        "rank": 1,
        "page": 8,
        "hierarchy": [
            "Muro-ji Temple",
            "Uda",
            "Nara Prefecture",
            "Japan"
        ]
    },
    {
        "title": "Kogen-ji Temple",
        "subtitle": "Ancient Buddhist temple in Tamba, Hyogo, known for autumn leaves",
        "lat": 35.1278,
        "lon": 135.1187,
        "type": "Buddhist temple",
        "class": "amenity",
        "confidence": 0.9,
        "rank": 1,
        "page": 9,
        "hierarchy": [
            "Kogen-ji Temple",
            "Tamba",
            "Hyogo Prefecture",
            "Japan"
        ]
    },
    {
        "title": "Kobe Chinatown",
        "subtitle": "Vibrant Chinatown district in Kobe, Hyogo, Japan",
        "lat": 34.6854,
        "lon": 135.187,
        "type": "neighborhood",
        "class": "amenity",
        "confidence": 0.9,
        "rank": 2,
        "page": 10,
        "hierarchy": [
            "Kobe Chinatown",
            "Chuo Ward",
            "Kobe",
            "Hyogo Prefecture",
            "Japan"
        ]
    },
    {
        "title": "Tajima Daibutsu",
        "subtitle": "Large Buddha statue at Daijyo-ji Temple in Kami, Hyogo",
        "lat": 35.6268,
        "lon": 134.6657,
        "type": "Buddhist temple",
        "class": "amenity",
        "confidence": 0.9,
        "rank": 1,
        "page": 11,
        "hierarchy": [
            "Tajima Daibutsu",
            "Daijyo-ji Temple",
            "Kami",
            "Hyogo Prefecture",
            "Japan"
        ]
    },
    {
        "title": "Nakatsukasa Magotaro Inari Shrine",
        "subtitle": "Historic Shinto shrine in Kitakyushu, Fukuoka, Japan",
        "lat": 33.8821,
        "lon": 130.8703,
        "type": "Shinto shrine",
        "class": "amenity",
        "confidence": 0.9,
        "rank": 1,
        "page": 12,
        "hierarchy": [
            "Nakatsukasa Magotaro Inari Shrine",
            "Kitakyushu",
            "Fukuoka Prefecture",
            "Japan"
        ]
    },
    {
        "title": "Takasumi Shrine",
        "subtitle": "Mountain shrine dedicated to Tengu, in Soeda, Fukuoka",
        "lat": 33.5645,
        "lon": 130.8524,
        "type": "Shinto shrine",
        "class": "amenity",
        "confidence": 0.9,
        "rank": 1,
        "page": 13,
        "hierarchy": [
            "Takasumi Shrine",
            "Soeda",
            "Fukuoka Prefecture",
            "Japan"
        ]
    },
    {
        "title": "Miyajidake Shrine",
        "subtitle": "Road of Light sunset phenomenon at Fukutsu, Fukuoka",
        "lat": 33.7845,
        "lon": 130.4907,
        "type": "Shinto shrine",
        "class": "amenity",
        "confidence": 0.85,
        "rank": 1,
        "page": 14,
        "hierarchy": [
            "Miyajidake Shrine",
            "Fukutsu",
            "Fukuoka Prefecture",
            "Japan"
        ]
    },
    {
        "title": "Kiyosu Castle",
        "subtitle": "Reconstruction of a historic Japanese castle in Kiyosu, Aichi",
        "lat": 35.2281,
        "lon": 136.853,
        "type": "castle",
        "class": "landmark",
        "confidence": 0.9,
        "rank": 1,
        "page": 15,
        "hierarchy": [
            "Kiyosu Castle",
            "Kiyosu",
            "Aichi Prefecture",
            "Japan"
        ]
    },
    {
        "title": "Chita Bamboo Forest",
        "subtitle": "Scenic bamboo grove in Chita Peninsula, Aichi, Japan",
        "lat": 34.8015,
        "lon": 136.8643,
        "type": "forest",
        "class": "natural",
        "confidence": 0.85,
        "rank": 2,
        "page": 16,
        "hierarchy": [
            "Chita Bamboo Forest",
            "Chita Peninsula",
            "Aichi Prefecture",
            "Japan"
        ]
    },
    {
        "title": "Jurakuen Daibutsu",
        "subtitle": "Large Buddha statue in Jurakuen Park, Tokai, Aichi",
        "lat": 35.0396,
        "lon": 136.8906,
        "type": "Buddhist temple",
        "class": "amenity",
        "confidence": 0.9,
        "rank": 1,
        "page": 17,
        "hierarchy": [
            "Jurakuen Daibutsu",
            "Tokai",
            "Aichi Prefecture",
            "Japan"
        ]
    },
    {
        "title": "Kagekiyo Cave",
        "subtitle": "Limestone cave in Mine, Yamaguchi, designated natural monument",
        "lat": 34.2091,
        "lon": 131.2588,
        "type": "cave",
        "class": "natural",
        "confidence": 0.9,
        "rank": 1,
        "page": 18,
        "hierarchy": [
            "Kagekiyo Cave",
            "Mine",
            "Yamaguchi Prefecture",
            "Japan"
        ]
    },
    {
        "title": "Motonosumi Shrine",
        "subtitle": "Cliffside Shinto shrine with torii gate tunnel in Nagato, Yamaguchi",
        "lat": 34.4024,
        "lon": 130.9858,
        "type": "Shinto shrine",
        "class": "amenity",
        "confidence": 0.9,
        "rank": 1,
        "page": 19,
        "hierarchy": [
            "Motonosumi Shrine",
            "Nagato",
            "Yamaguchi Prefecture",
            "Japan"
        ]
    },
    {
        "title": "Tokoji Temple",
        "subtitle": "Zen Buddhist temple with historic graveyard in Hagi, Yamaguchi",
        "lat": 34.1506,
        "lon": 131.4258,
        "type": "Buddhist temple",
        "class": "amenity",
        "confidence": 0.9,
        "rank": 1,
        "page": 20,
        "hierarchy": [
            "Tokoji Temple",
            "Hagi",
            "Yamaguchi Prefecture",
            "Japan"
        ]
    },
    {
        "title": "Kinkaku-ji Temple",
        "subtitle": "Zen Buddhist temple, Golden Pavilion, in Kyoto, Japan",
        "lat": 35.0394,
        "lon": 135.7292,
        "type": "Buddhist temple",
        "class": "amenity",
        "confidence": 0.95,
        "rank": 1,
        "page": 21,
        "hierarchy": [
            "Kinkaku-ji Temple",
            "Kyoto",
            "Kyoto Prefecture",
            "Japan"
        ]
    },
    {
        "title": "Yasaka Pagoda",
        "subtitle": "Historic five-story pagoda of Hokan-ji Temple in Kyoto",
        "lat": 34.9964,
        "lon": 135.7801,
        "type": "Buddhist temple",
        "class": "amenity",
        "confidence": 0.95,
        "rank": 1,
        "page": 22,
        "hierarchy": [
            "Yasaka Pagoda",
            "Kyoto",
            "Kyoto Prefecture",
            "Japan"
        ]
    },
    {
        "title": "Nanzen-ji Temple",
        "subtitle": "Important Zen Buddhist temple in Kyoto, Japan",
        "lat": 35.0118,
        "lon": 135.7904,
        "type": "Buddhist temple",
        "class": "amenity",
        "confidence": 0.95,
        "rank": 1,
        "page": 23,
        "hierarchy": [
            "Nanzen-ji Temple",
            "Kyoto",
            "Kyoto Prefecture",
            "Japan"
        ]
    }
]