[
    {
        "title": "Porto Flavia",
        "subtitle": "Historic sea harbor and mineral hub",
        "lat": 39.3361,
        "lon": 8.4214,
        "type": "harbor",
        "class": "man_made",
        "confidence": 1.0,
        "rank": 1,
        "page": null
    },
    {
        "title": "Masua",
        "subtitle": "Mining area in Sardinia, Italy",
        "lat": 39.3389,
        "lon": 8.4239,
        "type": "locality",
        "class": "place",
        "confidence": 1.0,
        "rank": 3,
        "page": null
    },
    {
        "title": "Nebida",
        "subtitle": "Village near Porto Flavia, Sardinia",
        "lat": 39.3406,
        "lon": 8.4111,
        "type": "village",
        "class": "place",
        "confidence": 1.0,
        "rank": 3,
        "page": null
    },
    {
        "title": "Iglesias",
        "subtitle": "Comune in Sardinia, Italy",
        "lat": 39.309,
        "lon": 8.5414,
        "type": "city",
        "class": "place",
        "confidence": 1.0,
        "rank": 4,
        "page": null
    },
    {
        "title": "Iglesiente",
        "subtitle": "Sub-region of Sardinia, Italy",
        "lat": 39.35,
        "lon": 8.5,
        "type": "region",
        "class": "place",
        "confidence": 1.0,
        "rank": 6,
        "page": null
    },
    {
        "title": "Sardinia",
        "subtitle": "Island and autonomous region of Italy",
        "lat": 39.9994,
        "lon": 9.1,
        "type": "island",
        "class": "natural",
        "confidence": 1.0,
        "rank": 6,
        "page": null
    },
    {
        "title": "Italy",
        "subtitle": "Country in Southern Europe",
        "lat": 41.8719,
        "lon": 12.5674,
        "type": "country",
        "class": "place",
        "confidence": 1.0,
        "rank": 7,
        "page": null
    },
    {
        "title": "Europe",
        "subtitle": "Continent",
        "lat": 54.526,
        "lon": 15.2551,
        "type": "continent",
        "class": "place",
        "confidence": 1.0,
        "rank": 9,
        "page": null
    }
]