[
    {
        "title": "Dublin",
        "subtitle": "Capital city of Ireland",
        "lat": 53.349805,
        "lon": -6.26031,
        "type": "city",
        "class": "place",
        "confidence": 1.0,
        "rank": 4,
        "page": 1
    },
    {
        "title": "Munich",
        "subtitle": "Major city in Bavaria, Germany",
        "lat": 48.137154,
        "lon": 11.576124,
        "type": "city",
        "class": "place",
        "confidence": 1.0,
        "rank": 4,
        "page": 2
    },
    {
        "title": "Rio de Janeiro",
        "subtitle": "Coastal city in Brazil",
        "lat": -22.906847,
        "lon": -43.172897,
        "type": "city",
        "class": "place",
        "confidence": 1.0,
        "rank": 4,
        "page": 3
    },
    {
        "title": "Porto",
        "subtitle": "Coastal city in northwest Portugal",
        "lat": 41.157944,
        "lon": -8.629105,
        "type": "city",
        "class": "place",
        "confidence": 1.0,
        "rank": 4,
        "page": 4
    },
    {
        "title": "Venice",
        "subtitle": "City in northeastern Italy",
        "lat": 45.440847,
        "lon": 12.315515,
        "type": "city",
        "class": "place",
        "confidence": 1.0,
        "rank": 4,
        "page": 5
    },
    {
        "title": "Edinburgh",
        "subtitle": "Capital city of Scotland, United Kingdom",
        "lat": 55.953251,
        "lon": -3.188267,
        "type": "city",
        "class": "place",
        "confidence": 1.0,
        "rank": 4,
        "page": 6
    },
    {
        "title": "Tianjin",
        "subtitle": "Major port city in northern China",
        "lat": 39.084158,
        "lon": 117.200983,
        "type": "city",
        "class": "place",
        "confidence": 1.0,
        "rank": 4,
        "page": 7
    },
    {
        "title": "G\u00f6rlitz",
        "subtitle": "Town in Saxony, Germany",
        "lat": 51.158582,
        "lon": 14.985923,
        "type": "town",
        "class": "place",
        "confidence": 1.0,
        "rank": 3,
        "page": 8
    },
    {
        "title": "Amsterdam",
        "subtitle": "Capital city of the Netherlands",
        "lat": 52.370216,
        "lon": 4.895168,
        "type": "city",
        "class": "place",
        "confidence": 1.0,
        "rank": 4,
        "page": 9
    },
    {
        "title": "Zhongshuge Library Dujiangyan",
        "subtitle": "Architecturally stunning library in Dujiangyan, China",
        "lat": 30.98533,
        "lon": 103.62775,
        "type": "library",
        "class": "amenity",
        "confidence": 0.9,
        "rank": 1,
        "page": 10
    }
]