[
    {
        "title": "Kristiansand",
        "subtitle": "City in Agder, Norway",
        "lat": 58.1465,
        "lon": 7.9959,
        "type": "city",
        "class": "place",
        "confidence": 0.95,
        "rank": 4,
        "page": 1,
        "hierarchy": [
            "Kristiansand",
            "Agder",
            "Norway"
        ]
    },
    {
        "title": "Oslo",
        "subtitle": "Capital city of Norway",
        "lat": 59.9133,
        "lon": 10.7389,
        "type": "city",
        "class": "place",
        "confidence": 0.98,
        "rank": 4,
        "page": 2,
        "hierarchy": [
            "Oslo",
            "Norway"
        ]
    },
    {
        "title": "Lysefjord",
        "subtitle": "Fjord in Ryfylke, Rogaland, Norway",
        "lat": 58.9329,
        "lon": 6.3752,
        "type": "fjord",
        "class": "natural",
        "confidence": 0.97,
        "rank": 8,
        "page": 3,
        "hierarchy": [
            "Lysefjord",
            "Rogaland",
            "Norway"
        ]
    },
    {
        "title": "Odda",
        "subtitle": "Town in Ullensvang, Vestland, Norway",
        "lat": 60.0649,
        "lon": 6.5459,
        "type": "town",
        "class": "place",
        "confidence": 0.95,
        "rank": 3,
        "page": 4,
        "hierarchy": [
            "Odda",
            "Ullensvang",
            "Vestland",
            "Norway"
        ]
    },
    {
        "title": "Folgefonna National Park",
        "subtitle": "National park in Vestland, Norway",
        "lat": 60.1,
        "lon": 6.35,
        "type": "national_park",
        "class": "leisure",
        "confidence": 0.98,
        "rank": 2,
        "page": 4,
        "hierarchy": [
            "Folgefonna National Park",
            "Vestland",
            "Norway"
        ]
    },
    {
        "title": "Bergen",
        "subtitle": "City in Vestland, Norway",
        "lat": 60.3929,
        "lon": 5.3242,
        "type": "city",
        "class": "place",
        "confidence": 0.99,
        "rank": 4,
        "page": 5,
        "hierarchy": [
            "Bergen",
            "Vestland",
            "Norway"
        ]
    },
    {
        "title": "Aurland",
        "subtitle": "Village in Aurland, Vestland, Norway",
        "lat": 60.908,
        "lon": 7.104,
        "type": "village",
        "class": "place",
        "confidence": 0.94,
        "rank": 3,
        "page": 6,
        "hierarchy": [
            "Aurland",
            "Vestland",
            "Norway"
        ]
    },
    {
        "title": "Fj\u00e6rland",
        "subtitle": "Village in Sogndal, Vestland, Norway",
        "lat": 61.423,
        "lon": 6.574,
        "type": "village",
        "class": "place",
        "confidence": 0.96,
        "rank": 3,
        "page": 7,
        "hierarchy": [
            "Fj\u00e6rland",
            "Sogndal",
            "Vestland",
            "Norway"
        ]
    },
    {
        "title": "Stryn",
        "subtitle": "Village in Stryn, Vestland, Norway",
        "lat": 61.9056,
        "lon": 6.724,
        "type": "village",
        "class": "place",
        "confidence": 0.95,
        "rank": 3,
        "page": 8,
        "hierarchy": [
            "Stryn",
            "Vestland",
            "Norway"
        ]
    },
    {
        "title": "Geiranger",
        "subtitle": "Village in Stranda, M\u00f8re og Romsdal, Norway",
        "lat": 62.1017,
        "lon": 7.2081,
        "type": "village",
        "class": "place",
        "confidence": 0.98,
        "rank": 3,
        "page": 9,
        "hierarchy": [
            "Geiranger",
            "Stranda",
            "M\u00f8re og Romsdal",
            "Norway"
        ]
    },
    {
        "title": "Dovrefjell National Park",
        "subtitle": "National park in Innlandet, Norway",
        "lat": 62.2667,
        "lon": 9.1,
        "type": "national_park",
        "class": "leisure",
        "confidence": 0.97,
        "rank": 2,
        "page": 10,
        "hierarchy": [
            "Dovrefjell National Park",
            "Innlandet",
            "Norway"
        ]
    },
    {
        "title": "Oslo",
        "subtitle": "Capital city of Norway",
        "lat": 59.9133,
        "lon": 10.7389,
        "type": "city",
        "class": "place",
        "confidence": 0.98,
        "rank": 4,
        "page": 11,
        "hierarchy": [
            "Oslo",
            "Norway"
        ]
    }
]