[
    {
        "title": "Urbino",
        "subtitle": "Historic city in Marche, Italy, a UNESCO World Heritage site.",
        "lat": 43.7259,
        "lon": 12.6366,
        "type": "city",
        "class": "place",
        "confidence": 0.95,
        "rank": 4,
        "page": 1,
        "hierarchy": [
            "Urbino",
            "Province of Pesaro and Urbino",
            "Marche",
            "Italy"
        ]
    },
    {
        "title": "Craco",
        "subtitle": "Abandoned medieval ghost town in southern Italy, often used as a film set.",
        "lat": 40.385,
        "lon": 16.444,
        "type": "abandoned village",
        "class": "place",
        "confidence": 0.95,
        "rank": 3,
        "page": 2,
        "hierarchy": [
            "Craco",
            "Province of Matera",
            "Basilicata",
            "Italy"
        ]
    },
    {
        "title": "San Gimignano",
        "subtitle": "Walled medieval hill town in Tuscany, Italy, famous for its preserved towers.",
        "lat": 43.468,
        "lon": 11.042,
        "type": "town",
        "class": "place",
        "confidence": 0.95,
        "rank": 3,
        "page": 3,
        "hierarchy": [
            "San Gimignano",
            "Province of Siena",
            "Tuscany",
            "Italy"
        ]
    },
    {
        "title": "Caprarola",
        "subtitle": "Italian commune in Viterbo province, home to the Renaissance Villa Farnese.",
        "lat": 42.336,
        "lon": 12.235,
        "type": "town",
        "class": "place",
        "confidence": 0.95,
        "rank": 3,
        "page": 4,
        "hierarchy": [
            "Caprarola",
            "Province of Viterbo",
            "Lazio",
            "Italy"
        ]
    },
    {
        "title": "Monteriggioni",
        "subtitle": "Historic walled comune in Siena, Tuscany, known for its medieval walls.",
        "lat": 43.393,
        "lon": 11.229,
        "type": "town",
        "class": "place",
        "confidence": 0.95,
        "rank": 3,
        "page": 5,
        "hierarchy": [
            "Monteriggioni",
            "Province of Siena",
            "Tuscany",
            "Italy"
        ]
    },
    {
        "title": "San Galgano Abbey",
        "subtitle": "Roofless Cistercian abbey ruins near Siena, famous for its 'Sword in the Stone'.",
        "lat": 43.149,
        "lon": 11.149,
        "type": "abbey",
        "class": "building",
        "confidence": 0.95,
        "rank": 1,
        "page": 6,
        "hierarchy": [
            "Abbey of San Galgano",
            "Chiusdino",
            "Province of Siena",
            "Tuscany",
            "Italy"
        ]
    },
    {
        "title": "Castel del Monte",
        "subtitle": "13th-century octagonal citadel in Apulia, a UNESCO World Heritage site.",
        "lat": 41.083,
        "lon": 16.262,
        "type": "castle",
        "class": "building",
        "confidence": 0.95,
        "rank": 1,
        "page": 7,
        "hierarchy": [
            "Castel del Monte",
            "Andria",
            "Province of Barletta-Andria-Trani",
            "Apulia",
            "Italy"
        ]
    },
    {
        "title": "Maratea",
        "subtitle": "Coastal town in Basilicata, Italy, known for its Christ the Redeemer statue.",
        "lat": 39.992,
        "lon": 15.725,
        "type": "town",
        "class": "place",
        "confidence": 0.95,
        "rank": 3,
        "page": 8,
        "hierarchy": [
            "Maratea",
            "Province of Potenza",
            "Basilicata",
            "Italy"
        ]
    },
    {
        "title": "Orvieto",
        "subtitle": "Hilltop city in Umbria, Italy, famous for its stunning cathedral.",
        "lat": 42.721,
        "lon": 12.115,
        "type": "city",
        "class": "place",
        "confidence": 0.95,
        "rank": 4,
        "page": 9,
        "hierarchy": [
            "Orvieto",
            "Province of Terni",
            "Umbria",
            "Italy"
        ]
    },
    {
        "title": "Castelmezzano",
        "subtitle": "Mountain village in Basilicata, Italy, nestled among the Lucanian Dolomites.",
        "lat": 40.54,
        "lon": 16.037,
        "type": "village",
        "class": "place",
        "confidence": 0.95,
        "rank": 3,
        "page": 10,
        "hierarchy": [
            "Castelmezzano",
            "Province of Potenza",
            "Basilicata",
            "Italy"
        ]
    }
]