[
    {
        "title": "Val di Funes",
        "subtitle": "Valley in South Tyrol, Dolomites, Italy",
        "lat": 46.65,
        "lon": 11.7,
        "type": "valley",
        "class": "natural",
        "confidence": 1.0,
        "rank": 6,
        "page": 1,
        "hierarchy": [
            "Val di Funes",
            "South Tyrol",
            "Italy"
        ]
    },
    {
        "title": "Canale di Tenno",
        "subtitle": "Medieval village in Trentino, Italy",
        "lat": 45.9288,
        "lon": 10.8248,
        "type": "village",
        "class": "place",
        "confidence": 1.0,
        "rank": 3,
        "page": 2,
        "hierarchy": [
            "Canale di Tenno",
            "Tenno",
            "Trentino",
            "Italy"
        ]
    },
    {
        "title": "Lago di Dobbiaco",
        "subtitle": "Alpine lake in South Tyrol, Dolomites, Italy",
        "lat": 46.7325,
        "lon": 12.2192,
        "type": "lake",
        "class": "natural",
        "confidence": 1.0,
        "rank": 2,
        "page": 3,
        "hierarchy": [
            "Lago di Dobbiaco",
            "Dobbiaco",
            "South Tyrol",
            "Italy"
        ]
    },
    {
        "title": "Rifugio Lago Nambino",
        "subtitle": "Mountain hut near Nambino Lake, Trentino, Italy",
        "lat": 46.1601,
        "lon": 10.8122,
        "type": "building",
        "class": "amenity",
        "confidence": 1.0,
        "rank": 1,
        "page": 4,
        "hierarchy": [
            "Rifugio Lago Nambino",
            "Madonna di Campiglio",
            "Trentino",
            "Italy"
        ]
    },
    {
        "title": "Lago di Carezza",
        "subtitle": "Alpine lake in South Tyrol, Dolomites, Italy",
        "lat": 46.4087,
        "lon": 11.583,
        "type": "lake",
        "class": "natural",
        "confidence": 1.0,
        "rank": 2,
        "page": 5,
        "hierarchy": [
            "Lago di Carezza",
            "Nova Levante",
            "South Tyrol",
            "Italy"
        ]
    },
    {
        "title": "Le Odle",
        "subtitle": "Geisler Group mountain range in the Dolomites, Italy",
        "lat": 46.6433,
        "lon": 11.7583,
        "type": "mountain_range",
        "class": "natural",
        "confidence": 1.0,
        "rank": 6,
        "page": 6,
        "hierarchy": [
            "Le Odle",
            "Dolomites",
            "South Tyrol",
            "Italy"
        ]
    },
    {
        "title": "Tre Cime di Lavaredo",
        "subtitle": "Iconic three peaks in the Dolomites, Italy",
        "lat": 46.6341,
        "lon": 12.2965,
        "type": "mountain",
        "class": "natural",
        "confidence": 1.0,
        "rank": 2,
        "page": 7,
        "hierarchy": [
            "Tre Cime di Lavaredo",
            "Dolomites",
            "Italy"
        ]
    },
    {
        "title": "Val di Fumo",
        "subtitle": "Valley in Adamello Brenta Nature Park, Trentino, Italy",
        "lat": 46.0375,
        "lon": 10.5147,
        "type": "valley",
        "class": "natural",
        "confidence": 1.0,
        "rank": 6,
        "page": 8,
        "hierarchy": [
            "Val di Fumo",
            "Adamello Brenta Nature Park",
            "Trentino",
            "Italy"
        ]
    },
    {
        "title": "Lago di Antermoia",
        "subtitle": "High-altitude lake in the Dolomites, Trentino, Italy",
        "lat": 46.4389,
        "lon": 11.6663,
        "type": "lake",
        "class": "natural",
        "confidence": 1.0,
        "rank": 2,
        "page": 9,
        "hierarchy": [
            "Lago di Antermoia",
            "Dolomites",
            "Trentino",
            "Italy"
        ]
    },
    {
        "title": "Lago di Resia",
        "subtitle": "Lake with submerged bell tower in South Tyrol, Italy",
        "lat": 46.8048,
        "lon": 10.5367,
        "type": "lake",
        "class": "natural",
        "confidence": 1.0,
        "rank": 2,
        "page": 10,
        "hierarchy": [
            "Lago di Resia",
            "Curon Venosta",
            "South Tyrol",
            "Italy"
        ]
    }
]