[
    {
        "title": "Campobasso",
        "subtitle": "City in Molise, Italy",
        "lat": 41.5647,
        "lon": 14.6591,
        "type": "city",
        "class": "place",
        "confidence": 1.0,
        "rank": 4,
        "page": 1
    },
    {
        "title": "Amalfi Coast",
        "subtitle": "Scenic coastline in Southern Italy",
        "lat": 40.6341,
        "lon": 14.6027,
        "type": "region",
        "class": "natural",
        "confidence": 1.0,
        "rank": 2,
        "page": 2
    },
    {
        "title": "Bologna",
        "subtitle": "City in Emilia-Romagna, Italy",
        "lat": 44.4938,
        "lon": 11.3426,
        "type": "city",
        "class": "place",
        "confidence": 1.0,
        "rank": 4,
        "page": 3
    },
    {
        "title": "Sirmione",
        "subtitle": "Town on Lake Garda, Italy",
        "lat": 45.4925,
        "lon": 10.6094,
        "type": "town",
        "class": "place",
        "confidence": 1.0,
        "rank": 3,
        "page": 4
    },
    {
        "title": "Venice",
        "subtitle": "City in Veneto, Italy",
        "lat": 45.4371,
        "lon": 12.3346,
        "type": "city",
        "class": "place",
        "confidence": 1.0,
        "rank": 4,
        "page": 5
    },
    {
        "title": "Assisi",
        "subtitle": "Hilltop town in Umbria, Italy",
        "lat": 43.0722,
        "lon": 12.6186,
        "type": "town",
        "class": "place",
        "confidence": 1.0,
        "rank": 3,
        "page": 6
    },
    {
        "title": "Verona",
        "subtitle": "City in Veneto, Italy",
        "lat": 45.4384,
        "lon": 10.9916,
        "type": "city",
        "class": "place",
        "confidence": 1.0,
        "rank": 4,
        "page": 7
    },
    {
        "title": "Tremosine",
        "subtitle": "Municipality on Lake Garda, Italy",
        "lat": 45.8344,
        "lon": 10.741,
        "type": "municipality",
        "class": "place",
        "confidence": 1.0,
        "rank": 3,
        "page": 8
    },
    {
        "title": "Colosseum",
        "subtitle": "Ancient amphitheater in Rome, Italy",
        "lat": 41.8902,
        "lon": 12.4922,
        "type": "historic building",
        "class": "amenity",
        "confidence": 1.0,
        "rank": 1,
        "page": 9
    },
    {
        "title": "Ostuni",
        "subtitle": "White city in Apulia, Italy",
        "lat": 40.7303,
        "lon": 17.575,
        "type": "town",
        "class": "place",
        "confidence": 1.0,
        "rank": 3,
        "page": 10
    }
]