[
    {
        "title": "Lysebotn Road",
        "subtitle": "Winding mountain road in Lysebotn, Norway",
        "lat": 59.0526,
        "lon": 6.6433,
        "type": "road",
        "class": "highway",
        "confidence": 0.95,
        "rank": 1,
        "page": null
    },
    {
        "title": "Lysebotn",
        "subtitle": "Village at the end of Lysefjord, Norway",
        "lat": 59.0494,
        "lon": 6.6028,
        "type": "village",
        "class": "place",
        "confidence": 1.0,
        "rank": 3,
        "page": 1
    },
    {
        "title": "Norway",
        "subtitle": "Nordic country in Northern Europe",
        "lat": 60.472,
        "lon": 8.4687,
        "type": "country",
        "class": "place",
        "confidence": 1.0,
        "rank": 7,
        "page": null
    },
    {
        "title": "Iceland",
        "subtitle": "Nordic island country in the North Atlantic",
        "lat": 64.9631,
        "lon": -19.0208,
        "type": "country",
        "class": "place",
        "confidence": 0.9,
        "rank": 7,
        "page": null
    },
    {
        "title": "Oslo",
        "subtitle": "Capital city of Norway",
        "lat": 59.9139,
        "lon": 10.7522,
        "type": "city",
        "class": "place",
        "confidence": 0.95,
        "rank": 4,
        "page": null
    },
    {
        "title": "Bergen",
        "subtitle": "City in Vestland county, Norway",
        "lat": 60.3913,
        "lon": 5.3221,
        "type": "city",
        "class": "place",
        "confidence": 0.95,
        "rank": 4,
        "page": null
    },
    {
        "title": "Lofoten",
        "subtitle": "Archipelago in Nordland county, Norway",
        "lat": 68.1,
        "lon": 13.5,
        "type": "archipelago",
        "class": "natural",
        "confidence": 0.95,
        "rank": 6,
        "page": null
    }
]