[
    {
        "title": "Magome-juku",
        "subtitle": "Historic post town in Nakatsugawa, Gifu Prefecture",
        "lat": 35.54921,
        "lon": 137.5857,
        "type": "village",
        "class": "place",
        "confidence": 0.95,
        "rank": 3,
        "page": 1,
        "hierarchy": [
            "Magome-juku",
            "Nakatsugawa",
            "Gifu Prefecture",
            "Japan"
        ]
    },
    {
        "title": "Saiko Iyashi-no-Sato Nenba",
        "subtitle": "Traditional Japanese village museum near Lake Saiko",
        "lat": 35.48809,
        "lon": 138.6853,
        "type": "attraction",
        "class": "tourism",
        "confidence": 0.95,
        "rank": 1,
        "page": 2,
        "hierarchy": [
            "Saiko Iyashi-no-Sato Nenba",
            "Fujikawaguchiko",
            "Yamanashi Prefecture",
            "Japan"
        ]
    },
    {
        "title": "Motoara River",
        "subtitle": "River flowing through Saitama Prefecture, Japan",
        "lat": 35.9149,
        "lon": 139.7391,
        "type": "river",
        "class": "waterway",
        "confidence": 0.9,
        "rank": 8,
        "page": 3,
        "hierarchy": [
            "Motoara River",
            "Saitama Prefecture",
            "Japan"
        ]
    },
    {
        "title": "Takayama",
        "subtitle": "City in the mountainous Hida region of Gifu Prefecture",
        "lat": 36.14667,
        "lon": 137.25139,
        "type": "city",
        "class": "place",
        "confidence": 0.95,
        "rank": 4,
        "page": 4,
        "hierarchy": [
            "Takayama",
            "Gifu Prefecture",
            "Japan"
        ]
    },
    {
        "title": "Matsumoto Castle",
        "subtitle": "Historic Japanese castle in Matsumoto, Nagano Prefecture",
        "lat": 36.23944,
        "lon": 137.96861,
        "type": "castle",
        "class": "historic",
        "confidence": 0.98,
        "rank": 1,
        "page": 5,
        "hierarchy": [
            "Matsumoto Castle",
            "Matsumoto",
            "Nagano Prefecture",
            "Japan"
        ]
    },
    {
        "title": "Nigatsu-d\u014d",
        "subtitle": "Buddhist temple hall in T\u014ddai-ji complex, Nara",
        "lat": 34.68962,
        "lon": 135.8455,
        "type": "temple",
        "class": "building",
        "confidence": 0.95,
        "rank": 1,
        "page": 6,
        "hierarchy": [
            "Nigatsu-d\u014d",
            "Nara",
            "Nara Prefecture",
            "Japan"
        ]
    },
    {
        "title": "Ritsurin Garden",
        "subtitle": "Historic landscape garden in Takamatsu, Kagawa Prefecture",
        "lat": 34.33111,
        "lon": 134.04167,
        "type": "garden",
        "class": "leisure",
        "confidence": 0.98,
        "rank": 2,
        "page": 7,
        "hierarchy": [
            "Ritsurin Garden",
            "Takamatsu",
            "Kagawa Prefecture",
            "Japan"
        ]
    },
    {
        "title": "Narai-juku",
        "subtitle": "Preserved Edo-period post town in Shiojiri, Nagano Prefecture",
        "lat": 35.9866,
        "lon": 137.828,
        "type": "village",
        "class": "place",
        "confidence": 0.95,
        "rank": 3,
        "page": 8,
        "hierarchy": [
            "Narai-juku",
            "Shiojiri",
            "Nagano Prefecture",
            "Japan"
        ]
    },
    {
        "title": "Yamagata City",
        "subtitle": "Capital city of Yamagata Prefecture, Japan",
        "lat": 38.25778,
        "lon": 140.36333,
        "type": "city",
        "class": "place",
        "confidence": 0.95,
        "rank": 4,
        "page": 9,
        "hierarchy": [
            "Yamagata",
            "Yamagata Prefecture",
            "Japan"
        ]
    }
]