[
    {
        "title": "Talat Noi",
        "subtitle": "Historic riverside neighborhood in Bangkok",
        "lat": 13.7369,
        "lon": 100.5152,
        "type": "neighbourhood",
        "class": "place",
        "confidence": 0.95,
        "rank": 2,
        "page": 1
    },
    {
        "title": "Bang Lamphu",
        "subtitle": "Historic area near Khao San Road in Bangkok",
        "lat": 13.7593,
        "lon": 100.4991,
        "type": "neighbourhood",
        "class": "place",
        "confidence": 0.95,
        "rank": 2,
        "page": 2
    },
    {
        "title": "Samsen",
        "subtitle": "Area and road in Bangkok's old city",
        "lat": 13.7711,
        "lon": 100.505,
        "type": "neighbourhood",
        "class": "place",
        "confidence": 0.9,
        "rank": 2,
        "page": 2
    },
    {
        "title": "Talat Phlu",
        "subtitle": "Historic market neighborhood in Thonburi, Bangkok",
        "lat": 13.7224,
        "lon": 100.4794,
        "type": "neighbourhood",
        "class": "place",
        "confidence": 0.95,
        "rank": 2,
        "page": 3
    },
    {
        "title": "Thonburi",
        "subtitle": "Historic district west of Chao Phraya River, Bangkok",
        "lat": 13.725,
        "lon": 100.468,
        "type": "district",
        "class": "place",
        "confidence": 0.9,
        "rank": 2,
        "page": 4
    },
    {
        "title": "Wongwian Yai",
        "subtitle": "Major roundabout and area in Thonburi, Bangkok",
        "lat": 13.722,
        "lon": 100.49,
        "type": "neighbourhood",
        "class": "place",
        "confidence": 0.95,
        "rank": 2,
        "page": 5
    },
    {
        "title": "Yaowarat",
        "subtitle": "Bangkok's vibrant Chinatown district",
        "lat": 13.742,
        "lon": 100.508,
        "type": "neighbourhood",
        "class": "place",
        "confidence": 0.98,
        "rank": 2,
        "page": 6
    },
    {
        "title": "Bobae Market",
        "subtitle": "Popular wholesale clothing market in Bangkok",
        "lat": 13.7554,
        "lon": 100.5109,
        "type": "market",
        "class": "amenity",
        "confidence": 0.98,
        "rank": 1,
        "page": 6
    },
    {
        "title": "Yaowarat",
        "subtitle": "Bangkok's vibrant Chinatown district",
        "lat": 13.742,
        "lon": 100.508,
        "type": "neighbourhood",
        "class": "place",
        "confidence": 0.98,
        "rank": 2,
        "page": 8
    },
    {
        "title": "Yaowarat",
        "subtitle": "Bangkok's vibrant Chinatown district",
        "lat": 13.742,
        "lon": 100.508,
        "type": "neighbourhood",
        "class": "place",
        "confidence": 0.98,
        "rank": 2,
        "page": 9
    },
    {
        "title": "Bobae Market",
        "subtitle": "Popular wholesale clothing market in Bangkok",
        "lat": 13.7554,
        "lon": 100.5109,
        "type": "market",
        "class": "amenity",
        "confidence": 0.98,
        "rank": 1,
        "page": 9
    },
    {
        "title": "Kudi Chin",
        "subtitle": "Historic Old Portuguese Quarter in Bangkok",
        "lat": 13.7381,
        "lon": 100.49,
        "type": "neighbourhood",
        "class": "place",
        "confidence": 0.98,
        "rank": 2,
        "page": 10
    }
]