[
    {
        "title": "Seoul",
        "subtitle": "Capital city of South Korea",
        "lat": 37.56667,
        "lon": 126.97806,
        "type": "city",
        "class": "place",
        "confidence": 1.0,
        "rank": 4,
        "page": 1
    },
    {
        "title": "Rio de Janeiro",
        "subtitle": "Major Brazilian city, famous for beaches",
        "lat": -22.9068,
        "lon": -43.1729,
        "type": "city",
        "class": "place",
        "confidence": 1.0,
        "rank": 4,
        "page": 2
    },
    {
        "title": "Porto",
        "subtitle": "Coastal city in northwest Portugal",
        "lat": 41.14961,
        "lon": -8.61099,
        "type": "city",
        "class": "place",
        "confidence": 1.0,
        "rank": 4,
        "page": 3
    },
    {
        "title": "Venice",
        "subtitle": "City in northeastern Italy, famous for canals",
        "lat": 45.43719,
        "lon": 12.33265,
        "type": "city",
        "class": "place",
        "confidence": 1.0,
        "rank": 4,
        "page": 4
    },
    {
        "title": "Osaka",
        "subtitle": "Large port city on Japan's Honshu island",
        "lat": 34.69373,
        "lon": 135.50217,
        "type": "city",
        "class": "place",
        "confidence": 1.0,
        "rank": 4,
        "page": 5
    },
    {
        "title": "Dublin",
        "subtitle": "Capital city of Ireland",
        "lat": 53.34985,
        "lon": -6.26031,
        "type": "city",
        "class": "place",
        "confidence": 1.0,
        "rank": 4,
        "page": 6
    },
    {
        "title": "Munich",
        "subtitle": "Capital of Bavaria, Germany",
        "lat": 48.13716,
        "lon": 11.57617,
        "type": "city",
        "class": "place",
        "confidence": 1.0,
        "rank": 4,
        "page": 7
    },
    {
        "title": "Tianjin",
        "subtitle": "Major port city in northern China",
        "lat": 39.08423,
        "lon": 117.20098,
        "type": "city",
        "class": "place",
        "confidence": 1.0,
        "rank": 4,
        "page": 8
    }
]
