[
    {
        "title": "Tramont",
        "subtitle": "Cafe and accommodation in Mae Rim",
        "lat": 18.8926,
        "lon": 98.9209,
        "type": "cafe",
        "class": "amenity",
        "confidence": 0.9,
        "rank": 1,
        "page": 1
    },
    {
        "title": "Onenueng Chiang Dao",
        "subtitle": "Accommodation near Doi Luang Chiang Dao",
        "lat": 19.3366,
        "lon": 98.8829,
        "type": "accommodation",
        "class": "tourism",
        "confidence": 0.9,
        "rank": 1,
        "page": 2
    },
    {
        "title": "Morning Star Glamping",
        "subtitle": "Glamping resort in Mae Charim, Nan",
        "lat": 18.5984,
        "lon": 100.9091,
        "type": "glamping",
        "class": "tourism",
        "confidence": 0.9,
        "rank": 1,
        "page": 3
    },
    {
        "title": "Camp Kew Muang",
        "subtitle": "Mountain view camping in Ban Luang, Nan",
        "lat": 18.8837,
        "lon": 100.8996,
        "type": "campground",
        "class": "tourism",
        "confidence": 0.9,
        "rank": 1,
        "page": 4
    },
    {
        "title": "Chonnabot",
        "subtitle": "Scenic accommodation in Pua District, Nan",
        "lat": 19.2272,
        "lon": 101.002,
        "type": "accommodation",
        "class": "tourism",
        "confidence": 0.9,
        "rank": 1,
        "page": 5
    },
    {
        "title": "Taloh Cabin",
        "subtitle": "Cozy cabin stay in Wiang Sa, Nan",
        "lat": 18.57,
        "lon": 100.86,
        "type": "cabin",
        "class": "tourism",
        "confidence": 0.85,
        "rank": 1,
        "page": 6
    },
    {
        "title": "Lanna Wild",
        "subtitle": "Riverside glamping resort in Chiang Rai",
        "lat": 19.68,
        "lon": 99.85,
        "type": "glamping",
        "class": "tourism",
        "confidence": 0.85,
        "rank": 1,
        "page": 7
    },
    {
        "title": "4 Sky Chiang Mai",
        "subtitle": "Guesthouse with city views in Chiang Mai",
        "lat": 18.7914,
        "lon": 98.988,
        "type": "guesthouse",
        "class": "tourism",
        "confidence": 0.9,
        "rank": 1,
        "page": 8
    },
    {
        "title": "Norden Glamping",
        "subtitle": "Glamping experience in Mae Rim, Chiang Mai",
        "lat": 18.9634,
        "lon": 98.8995,
        "type": "glamping",
        "class": "tourism",
        "confidence": 0.9,
        "rank": 1,
        "page": 9
    },
    {
        "title": "The Nor",
        "subtitle": "Accommodation in Mae Rim, Chiang Mai",
        "lat": 18.9118,
        "lon": 98.908,
        "type": "accommodation",
        "class": "tourism",
        "confidence": 0.9,
        "rank": 1,
        "page": 10
    },
    {
        "title": "North Star Valley",
        "subtitle": "Mountain resort in Mae Rim, Chiang Mai",
        "lat": 18.9097,
        "lon": 98.8972,
        "type": "resort",
        "class": "tourism",
        "confidence": 0.9,
        "rank": 1,
        "page": 11
    },
    {
        "title": "The Cloud 3105",
        "subtitle": "Mountain resort in Khao Kho, Phetchabun",
        "lat": 16.777,
        "lon": 100.99,
        "type": "resort",
        "class": "tourism",
        "confidence": 0.85,
        "rank": 1,
        "page": 12
    },
    {
        "title": "Cliffver Chiang Mai",
        "subtitle": "Scenic resort in Mae Rim, Chiang Mai",
        "lat": 18.9097,
        "lon": 98.88,
        "type": "resort",
        "class": "tourism",
        "confidence": 0.9,
        "rank": 1,
        "page": 13
    }
]