[
    {
        "title": "Rocca Calascio Castle",
        "subtitle": "Medieval fortress in Abruzzo, Italy",
        "lat": 42.3168,
        "lon": 13.5658,
        "type": "castle",
        "class": "man_made",
        "confidence": 1.0,
        "rank": 1,
        "page": null
    },
    {
        "title": "Italy",
        "subtitle": "Southern European country",
        "lat": 41.8719,
        "lon": 12.5674,
        "type": "country",
        "class": "place",
        "confidence": 1.0,
        "rank": 7,
        "page": null
    },
    {
        "title": "Asia",
        "subtitle": "Earth's largest and most populous continent",
        "lat": 34.0479,
        "lon": 100.6197,
        "type": "continent",
        "class": "place",
        "confidence": 0.8,
        "rank": 9,
        "page": null
    },
    {
        "title": "The Americas",
        "subtitle": "Continents of North and South America",
        "lat": 15.0,
        "lon": -80.0,
        "type": "continent",
        "class": "place",
        "confidence": 0.7,
        "rank": 9,
        "page": null
    },
    {
        "title": "France",
        "subtitle": "Western European country",
        "lat": 46.2276,
        "lon": 2.2137,
        "type": "country",
        "class": "place",
        "confidence": 0.9,
        "rank": 7,
        "page": null
    },
    {
        "title": "Europe",
        "subtitle": "Western Eurasian continent",
        "lat": 48.6909,
        "lon": 9.1406,
        "type": "continent",
        "class": "place",
        "confidence": 0.9,
        "rank": 9,
        "page": null
    }
]