[
    {
        "title": "Castillo de Colomares",
        "subtitle": "Monument in Benalm\u00e1dena, Spain",
        "lat": 36.5925,
        "lon": -4.5458,
        "type": "historic building",
        "class": "tourism",
        "confidence": 1.0,
        "rank": 1,
        "page": 1,
        "hierarchy": [
            "Castillo de Colomares",
            "Benalm\u00e1dena",
            "M\u00e1laga",
            "Andalusia",
            "Spain"
        ]
    },
    {
        "title": "Ronda",
        "subtitle": "City in M\u00e1laga, Andalusia, Spain",
        "lat": 36.7417,
        "lon": -5.1678,
        "type": "city",
        "class": "place",
        "confidence": 1.0,
        "rank": 4,
        "page": 2,
        "hierarchy": [
            "Ronda",
            "M\u00e1laga",
            "Andalusia",
            "Spain"
        ]
    },
    {
        "title": "Seville",
        "subtitle": "Capital city of Andalusia, Spain",
        "lat": 37.3828,
        "lon": -5.9732,
        "type": "city",
        "class": "place",
        "confidence": 1.0,
        "rank": 4,
        "page": 3,
        "hierarchy": [
            "Seville",
            "Seville Province",
            "Andalusia",
            "Spain"
        ]
    },
    {
        "title": "Santiago de Compostela",
        "subtitle": "City in A Coru\u00f1a, Galicia, Spain",
        "lat": 42.8806,
        "lon": -8.5446,
        "type": "city",
        "class": "place",
        "confidence": 1.0,
        "rank": 4,
        "page": 4,
        "hierarchy": [
            "Santiago de Compostela",
            "A Coru\u00f1a",
            "Galicia",
            "Spain"
        ]
    },
    {
        "title": "Setenil de las Bodegas",
        "subtitle": "Town in C\u00e1diz, Andalusia, Spain",
        "lat": 36.7797,
        "lon": -5.1764,
        "type": "town",
        "class": "place",
        "confidence": 1.0,
        "rank": 3,
        "page": 5,
        "hierarchy": [
            "Setenil de las Bodegas",
            "C\u00e1diz",
            "Andalusia",
            "Spain"
        ]
    },
    {
        "title": "Caminito del Rey",
        "subtitle": "Famous walkway in El Chorro gorge, M\u00e1laga, Spain",
        "lat": 36.9248,
        "lon": -4.8016,
        "type": "hiking trail",
        "class": "leisure",
        "confidence": 1.0,
        "rank": 1,
        "page": 6,
        "hierarchy": [
            "Caminito del Rey",
            "Ardales",
            "M\u00e1laga",
            "Andalusia",
            "Spain"
        ]
    },
    {
        "title": "Segovia",
        "subtitle": "City in Castile and Le\u00f3n, Spain",
        "lat": 40.9497,
        "lon": -4.1181,
        "type": "city",
        "class": "place",
        "confidence": 1.0,
        "rank": 4,
        "page": 7,
        "hierarchy": [
            "Segovia",
            "Segovia Province",
            "Castile and Le\u00f3n",
            "Spain"
        ]
    },
    {
        "title": "Burgos",
        "subtitle": "City in Castile and Le\u00f3n, Spain",
        "lat": 42.3439,
        "lon": -3.696,
        "type": "city",
        "class": "place",
        "confidence": 1.0,
        "rank": 4,
        "page": 8,
        "hierarchy": [
            "Burgos",
            "Burgos Province",
            "Castile and Le\u00f3n",
            "Spain"
        ]
    },
    {
        "title": "Tella",
        "subtitle": "Village in Huesca, Aragon, Spain",
        "lat": 42.5695,
        "lon": 0.1741,
        "type": "village",
        "class": "place",
        "confidence": 1.0,
        "rank": 3,
        "page": 9,
        "hierarchy": [
            "Tella",
            "Huesca",
            "Aragon",
            "Spain"
        ]
    },
    {
        "title": "Toledo",
        "subtitle": "City in Castile-La Mancha, Spain",
        "lat": 39.8567,
        "lon": -4.0245,
        "type": "city",
        "class": "place",
        "confidence": 1.0,
        "rank": 4,
        "page": 10,
        "hierarchy": [
            "Toledo",
            "Toledo Province",
            "Castile-La Mancha",
            "Spain"
        ]
    }
]