[
    {
        "title": "Glenridding Dodd",
        "subtitle": "A fell in the Lake District, England, United Kingdom",
        "lat": 54.5539,
        "lon": -2.9157,
        "type": "mountain",
        "class": "natural",
        "confidence": 0.95,
        "rank": 1,
        "page": 1,
        "hierarchy": [
            "Glenridding Dodd",
            "Glenridding",
            "Lake District",
            "Cumbria",
            "England",
            "United Kingdom"
        ]
    },
    {
        "title": "St Abbs",
        "subtitle": "A fishing village in Berwickshire, Scotland, United Kingdom",
        "lat": 55.9083,
        "lon": -2.1465,
        "type": "village",
        "class": "place",
        "confidence": 0.95,
        "rank": 3,
        "page": 2,
        "hierarchy": [
            "St Abbs",
            "Berwickshire",
            "Scottish Borders",
            "Scotland",
            "United Kingdom"
        ]
    },
    {
        "title": "Scale Force",
        "subtitle": "The tallest waterfall in the Lake District, England, United Kingdom",
        "lat": 54.5491,
        "lon": -3.3217,
        "type": "waterfall",
        "class": "natural",
        "confidence": 0.95,
        "rank": 1,
        "page": 3,
        "hierarchy": [
            "Scale Force",
            "Buttermere",
            "Lake District",
            "Cumbria",
            "England",
            "United Kingdom"
        ]
    },
    {
        "title": "Roseberry Topping",
        "subtitle": "A distinctive hill in North Yorkshire, England, United Kingdom",
        "lat": 54.5126,
        "lon": -1.1394,
        "type": "hill",
        "class": "natural",
        "confidence": 0.95,
        "rank": 1,
        "page": 4,
        "hierarchy": [
            "Roseberry Topping",
            "Newton under Roseberry",
            "North Yorkshire",
            "England",
            "United Kingdom"
        ]
    },
    {
        "title": "Crammel Linn",
        "subtitle": "A waterfall on the River Irthing near Gilsland, England, United Kingdom",
        "lat": 55.0204,
        "lon": -2.576,
        "type": "waterfall",
        "class": "natural",
        "confidence": 0.95,
        "rank": 1,
        "page": 5,
        "hierarchy": [
            "Crammel Linn",
            "Gilsland",
            "Cumbria",
            "England",
            "United Kingdom"
        ]
    },
    {
        "title": "Dunstanburgh Castle",
        "subtitle": "Ruined 14th-century castle on the Northumberland coast, England",
        "lat": 55.485,
        "lon": -1.6033,
        "type": "castle",
        "class": "historic",
        "confidence": 0.95,
        "rank": 1,
        "page": 6,
        "hierarchy": [
            "Dunstanburgh Castle",
            "Craster",
            "Northumberland",
            "England",
            "United Kingdom"
        ]
    },
    {
        "title": "Aira Force",
        "subtitle": "A waterfall on Aira Beck in the Lake District, England, United Kingdom",
        "lat": 54.5772,
        "lon": -2.9431,
        "type": "waterfall",
        "class": "natural",
        "confidence": 0.95,
        "rank": 1,
        "page": 7,
        "hierarchy": [
            "Aira Force",
            "Ullswater",
            "Lake District",
            "Cumbria",
            "England",
            "United Kingdom"
        ]
    },
    {
        "title": "Hartburn Grotto",
        "subtitle": "Historic grotto and woodland walk in Hartburn, Northumberland, England",
        "lat": 55.1983,
        "lon": -1.9547,
        "type": "grotto",
        "class": "tourism",
        "confidence": 0.95,
        "rank": 1,
        "page": 8,
        "hierarchy": [
            "Hartburn Grotto",
            "Hartburn",
            "Northumberland",
            "England",
            "United Kingdom"
        ]
    },
    {
        "title": "Mam Tor",
        "subtitle": "A hill near Castleton in the Peak District, England, United Kingdom",
        "lat": 53.3496,
        "lon": -1.7821,
        "type": "mountain",
        "class": "natural",
        "confidence": 0.95,
        "rank": 1,
        "page": 9,
        "hierarchy": [
            "Mam Tor",
            "Castleton",
            "Hope Valley",
            "Peak District",
            "Derbyshire",
            "England",
            "United Kingdom"
        ]
    },
    {
        "title": "Holy Island",
        "subtitle": "Tidal island with Lindisfarne Priory in Northumberland, England",
        "lat": 55.6736,
        "lon": -1.7925,
        "type": "island",
        "class": "natural",
        "confidence": 0.95,
        "rank": 1,
        "page": 10,
        "hierarchy": [
            "Holy Island",
            "Northumberland",
            "England",
            "United Kingdom"
        ]
    }
]