[
    {
        "title": "Izunuma",
        "subtitle": "Lake and wetland in Kurihara, Miyagi Prefecture",
        "lat": 38.7408,
        "lon": 141.0772,
        "type": "wetland",
        "class": "natural",
        "confidence": 0.9,
        "rank": 2,
        "page": 1,
        "hierarchy": [
            "Izunuma",
            "Kurihara",
            "Miyagi Prefecture",
            "Japan"
        ]
    },
    {
        "title": "Hanayama Dam",
        "subtitle": "Concrete gravity dam in Kurihara, Miyagi Prefecture, Japan",
        "lat": 38.8276,
        "lon": 140.7915,
        "type": "dam",
        "class": "amenity",
        "confidence": 0.95,
        "rank": 1,
        "page": 3,
        "hierarchy": [
            "Hanayama Dam",
            "Kurihara",
            "Miyagi Prefecture",
            "Japan"
        ]
    },
    {
        "title": "Nobiru Coast",
        "subtitle": "Scenic coastal area in Higashimatsushima, Miyagi Prefecture",
        "lat": 38.3752,
        "lon": 141.161,
        "type": "beach",
        "class": "natural",
        "confidence": 0.9,
        "rank": 2,
        "page": 4,
        "hierarchy": [
            "Nobiru Coast",
            "Higashimatsushima",
            "Miyagi Prefecture",
            "Japan"
        ]
    },
    {
        "title": "Osaki Hachiman-gu",
        "subtitle": "Historic Shinto shrine in Sendai, Miyagi Prefecture, Japan",
        "lat": 38.2731,
        "lon": 140.8306,
        "type": "shrine",
        "class": "amenity",
        "confidence": 0.95,
        "rank": 1,
        "page": 5,
        "hierarchy": [
            "Osaki Hachiman-gu",
            "Sendai",
            "Miyagi Prefecture",
            "Japan"
        ]
    },
    {
        "title": "Kumano Shrine",
        "subtitle": "Shinto shrine located in Natori, Miyagi Prefecture",
        "lat": 38.1633,
        "lon": 140.892,
        "type": "shrine",
        "class": "amenity",
        "confidence": 0.8,
        "rank": 1,
        "page": 6,
        "hierarchy": [
            "Kumano Shrine",
            "Natori",
            "Miyagi Prefecture",
            "Japan"
        ]
    },
    {
        "title": "Miyagi Zao Fox Village",
        "subtitle": "Unique animal sanctuary in Shiroishi, Miyagi Prefecture, Japan",
        "lat": 38.0305,
        "lon": 140.5606,
        "type": "animal_park",
        "class": "amenity",
        "confidence": 0.95,
        "rank": 1,
        "page": 7,
        "hierarchy": [
            "Miyagi Zao Fox Village",
            "Shiroishi",
            "Miyagi Prefecture",
            "Japan"
        ]
    },
    {
        "title": "Sendai Airport",
        "subtitle": "International airport serving Miyagi Prefecture, located in Natori",
        "lat": 38.1328,
        "lon": 140.9238,
        "type": "airport",
        "class": "transportation",
        "confidence": 0.95,
        "rank": 1,
        "page": 8,
        "hierarchy": [
            "Sendai Airport",
            "Natori",
            "Miyagi Prefecture",
            "Japan"
        ]
    },
    {
        "title": "Sendai Daikannon",
        "subtitle": "Large statue of Kannon in Sendai, Miyagi Prefecture, Japan",
        "lat": 38.3031,
        "lon": 140.8804,
        "type": "statue",
        "class": "amenity",
        "confidence": 0.95,
        "rank": 1,
        "page": 9,
        "hierarchy": [
            "Sendai Daikannon",
            "Sendai",
            "Miyagi Prefecture",
            "Japan"
        ]
    }
]