[
    {
        "title": "T\u014ddai-ji",
        "subtitle": "Buddhist temple in Nara, Japan, a World Heritage site.",
        "lat": 34.6888,
        "lon": 135.8398,
        "type": "temple",
        "class": "religious_building",
        "confidence": 0.98,
        "rank": 1,
        "page": 1,
        "hierarchy": [
            "T\u014ddai-ji",
            "Nara",
            "Nara Prefecture",
            "Japan"
        ]
    },
    {
        "title": "Kasuga-taisha",
        "subtitle": "Shinto shrine in Nara, Japan, a World Heritage site.",
        "lat": 34.6811,
        "lon": 135.855,
        "type": "shrine",
        "class": "religious_building",
        "confidence": 0.98,
        "rank": 1,
        "page": 2,
        "hierarchy": [
            "Kasuga-taisha",
            "Nara",
            "Nara Prefecture",
            "Japan"
        ]
    },
    {
        "title": "K\u014dfuku-ji",
        "subtitle": "Buddhist temple in Nara, Japan, a World Heritage site.",
        "lat": 34.6854,
        "lon": 135.8239,
        "type": "temple",
        "class": "religious_building",
        "confidence": 0.98,
        "rank": 1,
        "page": 3,
        "hierarchy": [
            "K\u014dfuku-ji",
            "Nara",
            "Nara Prefecture",
            "Japan"
        ]
    },
    {
        "title": "Gang\u014d-ji",
        "subtitle": "Buddhist temple in Nara, Japan, a World Heritage site.",
        "lat": 34.6787,
        "lon": 135.8202,
        "type": "temple",
        "class": "religious_building",
        "confidence": 0.98,
        "rank": 1,
        "page": 4,
        "hierarchy": [
            "Gang\u014d-ji",
            "Nara",
            "Nara Prefecture",
            "Japan"
        ]
    },
    {
        "title": "T\u014dsh\u014ddai-ji",
        "subtitle": "Buddhist temple in Nara, Japan, a World Heritage site.",
        "lat": 34.6756,
        "lon": 135.7869,
        "type": "temple",
        "class": "religious_building",
        "confidence": 0.98,
        "rank": 1,
        "page": 5,
        "hierarchy": [
            "T\u014dsh\u014ddai-ji",
            "Nara",
            "Nara Prefecture",
            "Japan"
        ]
    },
    {
        "title": "Yakushi-ji",
        "subtitle": "Buddhist temple in Nara, Japan, a World Heritage site.",
        "lat": 34.6749,
        "lon": 135.7979,
        "type": "temple",
        "class": "religious_building",
        "confidence": 0.98,
        "rank": 1,
        "page": 6,
        "hierarchy": [
            "Yakushi-ji",
            "Nara",
            "Nara Prefecture",
            "Japan"
        ]
    },
    {
        "title": "Mount Wakakusa",
        "subtitle": "Hill in Nara, Japan, famous for its scenic views.",
        "lat": 34.6931,
        "lon": 135.8569,
        "type": "mountain",
        "class": "natural",
        "confidence": 0.95,
        "rank": 2,
        "page": null,
        "hierarchy": [
            "Mount Wakakusa",
            "Nara",
            "Nara Prefecture",
            "Japan"
        ]
    },
    {
        "title": "Kintetsu Nara Station",
        "subtitle": "Major railway station in Nara, Japan, a transport hub.",
        "lat": 34.6854,
        "lon": 135.8291,
        "type": "station",
        "class": "transport",
        "confidence": 0.95,
        "rank": 1,
        "page": null,
        "hierarchy": [
            "Kintetsu Nara Station",
            "Nara",
            "Nara Prefecture",
            "Japan"
        ]
    }
]