[
    {
        "title": "Rifugio Odle",
        "subtitle": "Mountain hut in Val di Funes, Dolomites",
        "lat": 46.634,
        "lon": 11.724,
        "type": "alpine_hut",
        "class": "tourism",
        "confidence": 0.99,
        "rank": 1,
        "page": 1,
        "hierarchy": [
            "Rifugio Odle",
            "Val di Funes",
            "Villn\u00f6ss",
            "Bolzano",
            "Trentino-Alto Adige",
            "Italy"
        ]
    },
    {
        "title": "Chiesa San Giovanni in Ranui",
        "subtitle": "Historic church in Val di Funes, South Tyrol",
        "lat": 46.6432,
        "lon": 11.713,
        "type": "church",
        "class": "amenity",
        "confidence": 0.99,
        "rank": 1,
        "page": 2,
        "hierarchy": [
            "Chiesa di San Giovanni in Ranui",
            "Santa Maddalena",
            "Villn\u00f6ss",
            "Bolzano",
            "Trentino-Alto Adige",
            "Italy"
        ]
    },
    {
        "title": "Lago di Braies",
        "subtitle": "Scenic lake in Prags Valley, Dolomites",
        "lat": 46.6922,
        "lon": 12.1158,
        "type": "lake",
        "class": "natural",
        "confidence": 0.99,
        "rank": 2,
        "page": 3,
        "hierarchy": [
            "Lago di Braies",
            "Braies",
            "Bolzano",
            "Trentino-Alto Adige",
            "Italy"
        ]
    },
    {
        "title": "Lago di Sorapis",
        "subtitle": "Alpine lake near Cortina d'Ampezzo, Dolomites",
        "lat": 46.505,
        "lon": 12.228,
        "type": "lake",
        "class": "natural",
        "confidence": 0.99,
        "rank": 2,
        "page": 4,
        "hierarchy": [
            "Lago del Sorap\u00ecss",
            "Cortina d'Ampezzo",
            "Belluno",
            "Veneto",
            "Italy"
        ]
    },
    {
        "title": "Tre Cime di Lavaredo",
        "subtitle": "Iconic three peaks in the Dolomites",
        "lat": 46.6189,
        "lon": 12.2989,
        "type": "mountains",
        "class": "natural",
        "confidence": 0.99,
        "rank": 2,
        "page": 5,
        "hierarchy": [
            "Tre Cime di Lavaredo",
            "Sesto",
            "Bolzano",
            "Trentino-Alto Adige",
            "Italy"
        ]
    },
    {
        "title": "Rifugio Odle",
        "subtitle": "Mountain hut in Val di Funes, Dolomites",
        "lat": 46.634,
        "lon": 11.724,
        "type": "alpine_hut",
        "class": "tourism",
        "confidence": 0.99,
        "rank": 1,
        "page": 6,
        "hierarchy": [
            "Rifugio Odle",
            "Val di Funes",
            "Villn\u00f6ss",
            "Bolzano",
            "Trentino-Alto Adige",
            "Italy"
        ]
    },
    {
        "title": "Chiesa San Giovanni in Ranui",
        "subtitle": "Historic church in Val di Funes, South Tyrol",
        "lat": 46.6432,
        "lon": 11.713,
        "type": "church",
        "class": "amenity",
        "confidence": 0.99,
        "rank": 1,
        "page": 7,
        "hierarchy": [
            "Chiesa di San Giovanni in Ranui",
            "Santa Maddalena",
            "Villn\u00f6ss",
            "Bolzano",
            "Trentino-Alto Adige",
            "Italy"
        ]
    },
    {
        "title": "Lago di Braies",
        "subtitle": "Scenic lake in Prags Valley, Dolomites",
        "lat": 46.6922,
        "lon": 12.1158,
        "type": "lake",
        "class": "natural",
        "confidence": 0.99,
        "rank": 2,
        "page": 8,
        "hierarchy": [
            "Lago di Braies",
            "Braies",
            "Bolzano",
            "Trentino-Alto Adige",
            "Italy"
        ]
    },
    {
        "title": "Lago di Sorapis",
        "subtitle": "Alpine lake near Cortina d'Ampezzo, Dolomites",
        "lat": 46.505,
        "lon": 12.228,
        "type": "lake",
        "class": "natural",
        "confidence": 0.99,
        "rank": 2,
        "page": 9,
        "hierarchy": [
            "Lago del Sorap\u00ecss",
            "Cortina d'Ampezzo",
            "Belluno",
            "Veneto",
            "Italy"
        ]
    },
    {
        "title": "Tre Cime di Lavaredo",
        "subtitle": "Iconic three peaks in the Dolomites",
        "lat": 46.6189,
        "lon": 12.2989,
        "type": "mountains",
        "class": "natural",
        "confidence": 0.99,
        "rank": 2,
        "page": 10,
        "hierarchy": [
            "Tre Cime di Lavaredo",
            "Sesto",
            "Bolzano",
            "Trentino-Alto Adige",
            "Italy"
        ]
    }
]