[
    {
        "title": "Sicilian Avenue",
        "subtitle": "Historic shopping arcade in London",
        "lat": 51.520445,
        "lon": -0.120745,
        "type": "shopping street",
        "class": "amenity",
        "confidence": 1.0,
        "rank": 1,
        "page": null
    },
    {
        "title": "London",
        "subtitle": "Capital city of England",
        "lat": 51.5073219,
        "lon": -0.1276474,
        "type": "city",
        "class": "place",
        "confidence": 1.0,
        "rank": 4,
        "page": null
    },
    {
        "title": "England",
        "subtitle": "Country in the United Kingdom",
        "lat": 52.954605,
        "lon": -1.402241,
        "type": "country",
        "class": "place",
        "confidence": 1.0,
        "rank": 7,
        "page": null
    },
    {
        "title": "Great Britain",
        "subtitle": "Island comprising England, Scotland, Wales",
        "lat": 54.7023545,
        "lon": -3.2765757,
        "type": "island",
        "class": "place",
        "confidence": 1.0,
        "rank": 7,
        "page": null
    },
    {
        "title": "United Kingdom",
        "subtitle": "Sovereign country in Western Europe",
        "lat": 55.378051,
        "lon": -3.435973,
        "type": "country",
        "class": "place",
        "confidence": 1.0,
        "rank": 7,
        "page": null
    }
]