[
    {
        "title": "Assisi",
        "subtitle": "Hilltop town in Umbria, Italy",
        "lat": 43.07056,
        "lon": 12.61904,
        "type": "town",
        "class": "place",
        "confidence": 1.0,
        "rank": 3,
        "page": null
    },
    {
        "title": "Umbria",
        "subtitle": "Region in central Italy",
        "lat": 42.8596,
        "lon": 12.5976,
        "type": "region",
        "class": "place",
        "confidence": 1.0,
        "rank": 6,
        "page": 1
    },
    {
        "title": "Perugia",
        "subtitle": "Capital city of Umbria, Italy",
        "lat": 43.1122,
        "lon": 12.3888,
        "type": "city",
        "class": "place",
        "confidence": 1.0,
        "rank": 4,
        "page": 2
    },
    {
        "title": "Terni",
        "subtitle": "City in Umbria, Italy",
        "lat": 42.5654,
        "lon": 12.6467,
        "type": "city",
        "class": "place",
        "confidence": 1.0,
        "rank": 4,
        "page": 3
    },
    {
        "title": "Assisi",
        "subtitle": "Hilltop town in Umbria, Italy",
        "lat": 43.07056,
        "lon": 12.61904,
        "type": "town",
        "class": "place",
        "confidence": 1.0,
        "rank": 3,
        "page": 4
    },
    {
        "title": "Spoleto",
        "subtitle": "Ancient city in Umbria, Italy",
        "lat": 42.7369,
        "lon": 12.7419,
        "type": "city",
        "class": "place",
        "confidence": 1.0,
        "rank": 4,
        "page": 5
    },
    {
        "title": "Spello",
        "subtitle": "Medieval town in Umbria, Italy",
        "lat": 43.0039,
        "lon": 12.6625,
        "type": "town",
        "class": "place",
        "confidence": 1.0,
        "rank": 3,
        "page": 6
    },
    {
        "title": "Gubbio",
        "subtitle": "Medieval city in Umbria, Italy",
        "lat": 43.3503,
        "lon": 12.5768,
        "type": "city",
        "class": "place",
        "confidence": 1.0,
        "rank": 4,
        "page": 7
    },
    {
        "title": "Trevi",
        "subtitle": "Hilltop town in Umbria, Italy",
        "lat": 42.8837,
        "lon": 12.7533,
        "type": "town",
        "class": "place",
        "confidence": 1.0,
        "rank": 3,
        "page": 8
    },
    {
        "title": "Norcia",
        "subtitle": "Walled town in Umbria, Italy",
        "lat": 42.7937,
        "lon": 13.0935,
        "type": "town",
        "class": "place",
        "confidence": 1.0,
        "rank": 3,
        "page": 9
    },
    {
        "title": "Todi",
        "subtitle": "Ancient hill town in Umbria, Italy",
        "lat": 42.7788,
        "lon": 12.4042,
        "type": "town",
        "class": "place",
        "confidence": 1.0,
        "rank": 3,
        "page": 10
    },
    {
        "title": "Orvieto",
        "subtitle": "Hilltop city in Umbria, Italy",
        "lat": 42.7203,
        "lon": 12.1158,
        "type": "city",
        "class": "place",
        "confidence": 1.0,
        "rank": 4,
        "page": 11
    },
    {
        "title": "Castelluccio",
        "subtitle": "Village in Monti Sibillini National Park, Italy",
        "lat": 42.8256,
        "lon": 13.2106,
        "type": "village",
        "class": "place",
        "confidence": 0.9,
        "rank": 3,
        "page": 12
    },
    {
        "title": "Lago Trasimeno",
        "subtitle": "Fourth largest lake in Italy",
        "lat": 43.125,
        "lon": 12.125,
        "type": "lake",
        "class": "water",
        "confidence": 1.0,
        "rank": 2,
        "page": 13
    },
    {
        "title": "Rasiglia",
        "subtitle": "Hamlet in Umbria, Italy",
        "lat": 42.9231,
        "lon": 12.8028,
        "type": "hamlet",
        "class": "place",
        "confidence": 1.0,
        "rank": 3,
        "page": 14
    },
    {
        "title": "Foligno",
        "subtitle": "City in Umbria, Italy",
        "lat": 42.9575,
        "lon": 12.6953,
        "type": "city",
        "class": "place",
        "confidence": 1.0,
        "rank": 4,
        "page": 15
    },
    {
        "title": "Nocera Umbra",
        "subtitle": "Municipality in Umbria, Italy",
        "lat": 43.1119,
        "lon": 12.7844,
        "type": "municipality",
        "class": "place",
        "confidence": 1.0,
        "rank": 3,
        "page": 16
    },
    {
        "title": "Bevagna",
        "subtitle": "Medieval town in Umbria, Italy",
        "lat": 42.9347,
        "lon": 12.6075,
        "type": "town",
        "class": "place",
        "confidence": 1.0,
        "rank": 3,
        "page": 17
    },
    {
        "title": "Scheggino",
        "subtitle": "Municipality in Umbria, Italy",
        "lat": 42.7533,
        "lon": 12.8122,
        "type": "municipality",
        "class": "place",
        "confidence": 1.0,
        "rank": 3,
        "page": 18
    }
]