[
    {
        "title": "Phang Nga Bay",
        "subtitle": "Bay in southern Thailand",
        "lat": 8.2713,
        "lon": 98.4907,
        "type": "bay",
        "class": "natural",
        "confidence": 1.0,
        "rank": 8,
        "page": null
    },
    {
        "title": "Koh Hong",
        "subtitle": "Island in Phang Nga Bay, Thailand",
        "lat": 8.1704,
        "lon": 98.6009,
        "type": "island",
        "class": "natural",
        "confidence": 1.0,
        "rank": 2,
        "page": 1
    },
    {
        "title": "Koh Yao Yai",
        "subtitle": "Island in Phang Nga Bay, Thailand",
        "lat": 7.9945,
        "lon": 98.5905,
        "type": "island",
        "class": "natural",
        "confidence": 1.0,
        "rank": 2,
        "page": 2
    },
    {
        "title": "Koh Yao Noi",
        "subtitle": "Island in Phang Nga Bay, Thailand",
        "lat": 8.113,
        "lon": 98.5901,
        "type": "island",
        "class": "natural",
        "confidence": 1.0,
        "rank": 2,
        "page": 3
    },
    {
        "title": "Koh Lao Lading",
        "subtitle": "Island in Phang Nga Bay, Thailand",
        "lat": 8.1925,
        "lon": 98.6074,
        "type": "island",
        "class": "natural",
        "confidence": 1.0,
        "rank": 2,
        "page": 4
    },
    {
        "title": "Koh Panyee",
        "subtitle": "Floating village in Phang Nga Bay",
        "lat": 8.3243,
        "lon": 98.5209,
        "type": "village",
        "class": "place",
        "confidence": 1.0,
        "rank": 3,
        "page": 5
    },
    {
        "title": "Thailand",
        "subtitle": "Country in Southeast Asia",
        "lat": 15.87,
        "lon": 100.9925,
        "type": "country",
        "class": "place",
        "confidence": 1.0,
        "rank": 7,
        "page": 6
    },
    {
        "title": "Phi Phi Islands",
        "subtitle": "Archipelago in Krabi Province, Thailand",
        "lat": 7.7479,
        "lon": 98.777,
        "type": "archipelago",
        "class": "natural",
        "confidence": 1.0,
        "rank": 2,
        "page": null
    },
    {
        "title": "Koh Samui",
        "subtitle": "Island in Surat Thani, Thailand",
        "lat": 9.535,
        "lon": 100.0035,
        "type": "island",
        "class": "natural",
        "confidence": 1.0,
        "rank": 2,
        "page": null
    },
    {
        "title": "Bangkok",
        "subtitle": "Capital city of Thailand",
        "lat": 13.75,
        "lon": 100.49,
        "type": "city",
        "class": "place",
        "confidence": 1.0,
        "rank": 4,
        "page": null
    },
    {
        "title": "Phuket",
        "subtitle": "Island and city in Thailand",
        "lat": 7.89,
        "lon": 98.39,
        "type": "island",
        "class": "place",
        "confidence": 1.0,
        "rank": 4,
        "page": null
    },
    {
        "title": "Maya Bay",
        "subtitle": "Bay on Phi Phi Leh island",
        "lat": 7.6791,
        "lon": 98.7663,
        "type": "bay",
        "class": "natural",
        "confidence": 1.0,
        "rank": 2,
        "page": null
    },
    {
        "title": "Krabi",
        "subtitle": "Town and province in Thailand",
        "lat": 8.07,
        "lon": 98.92,
        "type": "city",
        "class": "place",
        "confidence": 1.0,
        "rank": 4,
        "page": null
    },
    {
        "title": "Koh Lipe",
        "subtitle": "Island in Satun, Thailand",
        "lat": 6.477,
        "lon": 99.297,
        "type": "island",
        "class": "natural",
        "confidence": 1.0,
        "rank": 2,
        "page": null
    }
]