[
    {
        "title": "Florence",
        "subtitle": "City in Tuscany, Italy",
        "lat": 43.7698712,
        "lon": 11.2555757,
        "type": "city",
        "class": "place",
        "confidence": 1.0,
        "rank": 4,
        "page": null
    },
    {
        "title": "Italy",
        "subtitle": "Country in Southern Europe",
        "lat": 41.87194,
        "lon": 12.56738,
        "type": "country",
        "class": "place",
        "confidence": 1.0,
        "rank": 7,
        "page": null
    },
    {
        "title": "Milan",
        "subtitle": "City in northern Italy",
        "lat": 45.4660305,
        "lon": 9.1895689,
        "type": "city",
        "class": "place",
        "confidence": 1.0,
        "rank": 4,
        "page": null
    },
    {
        "title": "Novara",
        "subtitle": "City and commune in Piedmont, Italy",
        "lat": 45.4462153,
        "lon": 8.6186989,
        "type": "city",
        "class": "place",
        "confidence": 1.0,
        "rank": 4,
        "page": null
    },
    {
        "title": "Piedmont",
        "subtitle": "Region in northern Italy",
        "lat": 45.0734268,
        "lon": 7.6814046,
        "type": "region",
        "class": "place",
        "confidence": 1.0,
        "rank": 6,
        "page": null
    },
    {
        "title": "Tuscany",
        "subtitle": "Region in central Italy",
        "lat": 43.3564267,
        "lon": 11.1610427,
        "type": "region",
        "class": "place",
        "confidence": 1.0,
        "rank": 6,
        "page": null
    },
    {
        "title": "Venice",
        "subtitle": "City in northeastern Italy",
        "lat": 45.4371908,
        "lon": 12.33459,
        "type": "city",
        "class": "place",
        "confidence": 1.0,
        "rank": 4,
        "page": null
    }
]