[
    {
        "title": "Jordan",
        "subtitle": "Middle Eastern country",
        "lat": 30.5852,
        "lon": 36.2384,
        "type": "country",
        "class": "place",
        "confidence": 1.0,
        "rank": 5,
        "page": null
    },
    {
        "title": "Petra",
        "subtitle": "Ancient city and archaeological site in Jordan",
        "lat": 30.3286,
        "lon": 35.4438,
        "type": "archaeological site",
        "class": "historic",
        "confidence": 1.0,
        "rank": 3,
        "page": null
    },
    {
        "title": "Portugal",
        "subtitle": "Southwestern European country",
        "lat": 39.5452,
        "lon": -8.0785,
        "type": "country",
        "class": "place",
        "confidence": 1.0,
        "rank": 5,
        "page": null
    },
    {
        "title": "Egypt",
        "subtitle": "North African country",
        "lat": 26.8206,
        "lon": 30.8025,
        "type": "country",
        "class": "place",
        "confidence": 1.0,
        "rank": 5,
        "page": null
    },
    {
        "title": "Pyramids of Giza",
        "subtitle": "Ancient pyramid complex near Cairo, Egypt",
        "lat": 29.9792,
        "lon": 31.1342,
        "type": "necropolis",
        "class": "historic",
        "confidence": 0.9,
        "rank": 1,
        "page": null
    }
]