[
    {
        "title": "Italy",
        "subtitle": "Country in Southern Europe",
        "lat": 41.87194,
        "lon": 12.56738,
        "type": "country",
        "class": "place",
        "confidence": 1.0,
        "rank": 7,
        "page": null
    },
    {
        "title": "Tuscany",
        "subtitle": "Region in central Italy",
        "lat": 43.7711,
        "lon": 11.2546,
        "type": "region",
        "class": "place",
        "confidence": 1.0,
        "rank": 6,
        "page": null
    },
    {
        "title": "Assisi",
        "subtitle": "Hilltop town in Umbria, Italy",
        "lat": 43.069444,
        "lon": 12.619444,
        "type": "town",
        "class": "place",
        "confidence": 1.0,
        "rank": 3,
        "page": 1
    },
    {
        "title": "Ostuni",
        "subtitle": "White city in Apulia, Italy",
        "lat": 40.730278,
        "lon": 17.575833,
        "type": "city",
        "class": "place",
        "confidence": 1.0,
        "rank": 4,
        "page": 2
    },
    {
        "title": "Assisi",
        "subtitle": "Hilltop town in Umbria, Italy",
        "lat": 43.069444,
        "lon": 12.619444,
        "type": "town",
        "class": "place",
        "confidence": 1.0,
        "rank": 3,
        "page": 3
    },
    {
        "title": "Arezzo",
        "subtitle": "City in Tuscany, Italy",
        "lat": 43.463333,
        "lon": 11.884167,
        "type": "city",
        "class": "place",
        "confidence": 1.0,
        "rank": 4,
        "page": 4
    },
    {
        "title": "Civita di Bagnoregio",
        "subtitle": "Hilltop village in Lazio, Italy",
        "lat": 42.766111,
        "lon": 12.083889,
        "type": "village",
        "class": "place",
        "confidence": 1.0,
        "rank": 3,
        "page": 5
    },
    {
        "title": "Perugia",
        "subtitle": "Capital city of Umbria, Italy",
        "lat": 43.112778,
        "lon": 12.388889,
        "type": "city",
        "class": "place",
        "confidence": 1.0,
        "rank": 4,
        "page": 6
    },
    {
        "title": "Chianalea di Scilla",
        "subtitle": "Fishing village in Calabria, Italy",
        "lat": 38.250556,
        "lon": 15.719444,
        "type": "village",
        "class": "place",
        "confidence": 1.0,
        "rank": 3,
        "page": 7
    },
    {
        "title": "Tropea",
        "subtitle": "Seaside town in Calabria, Italy",
        "lat": 38.679167,
        "lon": 15.898056,
        "type": "town",
        "class": "place",
        "confidence": 1.0,
        "rank": 3,
        "page": 8
    }
]