[
    {
        "title": "Talat Noi",
        "subtitle": "Historic riverside community in Bangkok",
        "lat": 13.736,
        "lon": 100.5135,
        "type": "neighbourhood",
        "class": "place",
        "confidence": 0.95,
        "rank": 2,
        "page": 1
    },
    {
        "title": "Bang Lamphu",
        "subtitle": "Old Town district in Bangkok",
        "lat": 13.759,
        "lon": 100.499,
        "type": "neighbourhood",
        "class": "place",
        "confidence": 0.95,
        "rank": 2,
        "page": 2
    },
    {
        "title": "Talat Phlu",
        "subtitle": "Historic market and neighbourhood in Thonburi, Bangkok",
        "lat": 13.722,
        "lon": 100.479,
        "type": "neighbourhood",
        "class": "place",
        "confidence": 0.95,
        "rank": 2,
        "page": 3
    },
    {
        "title": "Khlong Lat Mayom Floating Market",
        "subtitle": "Floating market known for green canal tunnels",
        "lat": 13.7505,
        "lon": 100.4358,
        "type": "market",
        "class": "amenity",
        "confidence": 0.9,
        "rank": 1,
        "page": 4
    },
    {
        "title": "Wongwian Yai",
        "subtitle": "Historic roundabout and district in Thonburi, Bangkok",
        "lat": 13.723,
        "lon": 100.492,
        "type": "roundabout",
        "class": "highway",
        "confidence": 0.95,
        "rank": 2,
        "page": 5
    },
    {
        "title": "Yaowarat Road",
        "subtitle": "Main street of Bangkok's Chinatown",
        "lat": 13.743,
        "lon": 100.506,
        "type": "road",
        "class": "highway",
        "confidence": 0.95,
        "rank": 2,
        "page": 6
    },
    {
        "title": "Bo Bae Market",
        "subtitle": "Famous wholesale clothing market in Bangkok",
        "lat": 13.756,
        "lon": 100.514,
        "type": "market",
        "class": "amenity",
        "confidence": 0.95,
        "rank": 1,
        "page": 6
    },
    {
        "title": "Rattanakosin Island",
        "subtitle": "Historic center of Bangkok with many temples",
        "lat": 13.755,
        "lon": 100.495,
        "type": "island",
        "class": "place",
        "confidence": 0.9,
        "rank": 2,
        "page": 7
    },
    {
        "title": "Yaowarat Road",
        "subtitle": "Main street of Bangkok's Chinatown",
        "lat": 13.743,
        "lon": 100.506,
        "type": "road",
        "class": "highway",
        "confidence": 0.95,
        "rank": 2,
        "page": 8
    },
    {
        "title": "Yaowarat Road",
        "subtitle": "Main street of Bangkok's Chinatown",
        "lat": 13.743,
        "lon": 100.506,
        "type": "road",
        "class": "highway",
        "confidence": 0.95,
        "rank": 2,
        "page": 9
    },
    {
        "title": "Bo Bae Market",
        "subtitle": "Famous wholesale clothing market in Bangkok",
        "lat": 13.756,
        "lon": 100.514,
        "type": "market",
        "class": "amenity",
        "confidence": 0.95,
        "rank": 1,
        "page": 9
    },
    {
        "title": "Kudi Chin",
        "subtitle": "Old Portuguese Quarter in Thonburi, Bangkok",
        "lat": 13.742,
        "lon": 100.49,
        "type": "neighbourhood",
        "class": "place",
        "confidence": 0.95,
        "rank": 2,
        "page": 10
    }
]