[
    {
        "title": "Castillo de Colomares",
        "subtitle": "Monumental castle in Benalm\u00e1dena, Spain",
        "lat": 36.5921,
        "lon": -4.5684,
        "type": "castle",
        "class": "tourism",
        "confidence": 0.95,
        "rank": 1,
        "page": 1,
        "hierarchy": [
            "Castillo de Colomares",
            "Benalm\u00e1dena",
            "M\u00e1laga",
            "Andalusia",
            "Spain"
        ]
    },
    {
        "title": "Ronda",
        "subtitle": "Historic mountaintop city in Malaga province",
        "lat": 36.7441,
        "lon": -5.1679,
        "type": "city",
        "class": "place",
        "confidence": 0.9,
        "rank": 4,
        "page": 2,
        "hierarchy": [
            "Ronda",
            "M\u00e1laga",
            "Andalusia",
            "Spain"
        ]
    },
    {
        "title": "Seville",
        "subtitle": "Capital and largest city of Andalusia, Spain",
        "lat": 37.3886,
        "lon": -5.9953,
        "type": "city",
        "class": "place",
        "confidence": 0.9,
        "rank": 4,
        "page": 3,
        "hierarchy": [
            "Seville",
            "Andalusia",
            "Spain"
        ]
    },
    {
        "title": "Torremolinos",
        "subtitle": "Resort town on Costa del Sol, Spain",
        "lat": 36.6212,
        "lon": -4.5008,
        "type": "town",
        "class": "place",
        "confidence": 0.9,
        "rank": 3,
        "page": 4,
        "hierarchy": [
            "Torremolinos",
            "M\u00e1laga",
            "Andalusia",
            "Spain"
        ]
    },
    {
        "title": "Marbella",
        "subtitle": "Glamorous resort city on Costa del Sol, Spain",
        "lat": 36.5098,
        "lon": -4.8864,
        "type": "city",
        "class": "place",
        "confidence": 0.9,
        "rank": 4,
        "page": 5,
        "hierarchy": [
            "Marbella",
            "M\u00e1laga",
            "Andalusia",
            "Spain"
        ]
    },
    {
        "title": "Izn\u00e1jar",
        "subtitle": "Hilltop village overlooking reservoir, Spain",
        "lat": 37.2407,
        "lon": -4.3005,
        "type": "village",
        "class": "place",
        "confidence": 0.9,
        "rank": 3,
        "page": 6,
        "hierarchy": [
            "Izn\u00e1jar",
            "C\u00f3rdoba",
            "Andalusia",
            "Spain"
        ]
    },
    {
        "title": "Malaga",
        "subtitle": "Port city on Spain's Costa del Sol",
        "lat": 36.7212,
        "lon": -4.4217,
        "type": "city",
        "class": "place",
        "confidence": 0.9,
        "rank": 4,
        "page": 7,
        "hierarchy": [
            "M\u00e1laga",
            "Andalusia",
            "Spain"
        ]
    },
    {
        "title": "Granada",
        "subtitle": "City in Andalusia famous for Alhambra, Spain",
        "lat": 37.1773,
        "lon": -3.5986,
        "type": "city",
        "class": "place",
        "confidence": 0.9,
        "rank": 4,
        "page": 8,
        "hierarchy": [
            "Granada",
            "Andalusia",
            "Spain"
        ]
    },
    {
        "title": "Cordoba",
        "subtitle": "Historic city in Andalusia known for Mezquita, Spain",
        "lat": 37.8819,
        "lon": -4.7796,
        "type": "city",
        "class": "place",
        "confidence": 0.9,
        "rank": 4,
        "page": 9,
        "hierarchy": [
            "C\u00f3rdoba",
            "Andalusia",
            "Spain"
        ]
    },
    {
        "title": "Setenil de las Bodegas",
        "subtitle": "White village built into rock, Spain",
        "lat": 36.7725,
        "lon": -5.1764,
        "type": "village",
        "class": "place",
        "confidence": 0.9,
        "rank": 3,
        "page": 10,
        "hierarchy": [
            "Setenil de las Bodegas",
            "C\u00e1diz",
            "Andalusia",
            "Spain"
        ]
    }
]