[
    {
        "title": "Neal's Yard",
        "subtitle": "Colourful alley in Covent Garden, London",
        "lat": 51.5139,
        "lon": -0.1246,
        "type": "pedestrian",
        "class": "highway",
        "confidence": 1.0,
        "rank": 1,
        "page": 1
    },
    {
        "title": "Leadenhall Market",
        "subtitle": "Historic covered market in London",
        "lat": 51.5135,
        "lon": -0.0838,
        "type": "market",
        "class": "amenity",
        "confidence": 1.0,
        "rank": 1,
        "page": 2
    },
    {
        "title": "The Royal Exchange",
        "subtitle": "Landmark building in the City of London",
        "lat": 51.5132,
        "lon": -0.088,
        "type": "building",
        "class": "man_made",
        "confidence": 0.9,
        "rank": 1,
        "page": 3
    },
    {
        "title": "The Marquess of Anglesey",
        "subtitle": "Traditional pub in Covent Garden, London",
        "lat": 51.5147,
        "lon": -0.1241,
        "type": "pub",
        "class": "amenity",
        "confidence": 1.0,
        "rank": 1,
        "page": 4
    },
    {
        "title": "St Dunstan in the East",
        "subtitle": "Ruined church garden in the City of London",
        "lat": 51.5103,
        "lon": -0.0839,
        "type": "ruins",
        "class": "historic",
        "confidence": 1.0,
        "rank": 2,
        "page": 5
    },
    {
        "title": "BAPS Shri Swaminarayan Mandir",
        "subtitle": "Grand Hindu temple in Wembley, London",
        "lat": 51.5583,
        "lon": -0.2796,
        "type": "temple",
        "class": "amenity",
        "confidence": 0.9,
        "rank": 1,
        "page": 6
    },
    {
        "title": "Wooden Wharf",
        "subtitle": "Riverside development in London's Royal Docks",
        "lat": 51.5074,
        "lon": 0.0093,
        "type": "dock",
        "class": "waterway",
        "confidence": 0.8,
        "rank": 2,
        "page": 7
    },
    {
        "title": "Upside Down House London",
        "subtitle": "Unique photo attraction in London",
        "lat": 51.5076,
        "lon": -0.2238,
        "type": "amusement_attraction",
        "class": "tourism",
        "confidence": 0.8,
        "rank": 1,
        "page": 8
    },
    {
        "title": "God's Own Junkyard",
        "subtitle": "Neon art gallery and cafe in Walthamstow",
        "lat": 51.5794,
        "lon": -0.0135,
        "type": "gallery",
        "class": "tourism",
        "confidence": 1.0,
        "rank": 1,
        "page": 9
    },
    {
        "title": "The Royal Exchange",
        "subtitle": "Landmark building in the City of London",
        "lat": 51.5132,
        "lon": -0.088,
        "type": "building",
        "class": "man_made",
        "confidence": 1.0,
        "rank": 1,
        "page": 10
    },
    {
        "title": "The Painted Hall",
        "subtitle": "Baroque masterpiece at Greenwich, London",
        "lat": 51.4828,
        "lon": -0.0061,
        "type": "historic_building",
        "class": "historic",
        "confidence": 1.0,
        "rank": 1,
        "page": 11
    }
]