[
    {
        "title": "Spiaggia La Pelosa",
        "subtitle": "Famous white sand beach in Stintino, Sardinia, Italy.",
        "lat": 40.963,
        "lon": 8.214,
        "type": "beach",
        "class": "natural",
        "confidence": 0.95,
        "rank": 2,
        "page": 1,
        "hierarchy": [
            "Spiaggia La Pelosa",
            "Stintino",
            "Sardinia",
            "Italy"
        ]
    },
    {
        "title": "Cala Brandinchi",
        "subtitle": "Beautiful beach known as 'Tahiti' in San Teodoro, Sardinia, Italy.",
        "lat": 40.852,
        "lon": 9.697,
        "type": "beach",
        "class": "natural",
        "confidence": 0.95,
        "rank": 2,
        "page": 2,
        "hierarchy": [
            "Cala Brandinchi",
            "San Teodoro",
            "Sardinia",
            "Italy"
        ]
    },
    {
        "title": "Spiaggia di Campulongu",
        "subtitle": "Sandy beach near Villasimius, Sardinia, Italy.",
        "lat": 39.043,
        "lon": 9.508,
        "type": "beach",
        "class": "natural",
        "confidence": 0.9,
        "rank": 2,
        "page": 3,
        "hierarchy": [
            "Spiaggia di Campulongu",
            "Villasimius",
            "Sardinia",
            "Italy"
        ]
    },
    {
        "title": "Cagliari",
        "subtitle": "The capital city of Sardinia, Italy.",
        "lat": 39.213,
        "lon": 9.111,
        "type": "city",
        "class": "place",
        "confidence": 0.98,
        "rank": 4,
        "page": 4,
        "hierarchy": [
            "Cagliari",
            "Sardinia",
            "Italy"
        ]
    },
    {
        "title": "Cala Luna",
        "subtitle": "Scenic cove with caves on the Gulf of Orosei, Sardinia, Italy.",
        "lat": 40.237,
        "lon": 9.637,
        "type": "beach",
        "class": "natural",
        "confidence": 0.95,
        "rank": 2,
        "page": 5,
        "hierarchy": [
            "Cala Luna",
            "Baunei",
            "Sardinia",
            "Italy"
        ]
    },
    {
        "title": "Cala Brandinchi",
        "subtitle": "Beautiful beach known as 'Tahiti' in San Teodoro, Sardinia, Italy.",
        "lat": 40.852,
        "lon": 9.697,
        "type": "beach",
        "class": "natural",
        "confidence": 0.95,
        "rank": 2,
        "page": 6,
        "hierarchy": [
            "Cala Brandinchi",
            "San Teodoro",
            "Sardinia",
            "Italy"
        ]
    },
    {
        "title": "Spiaggia di Punta Molentis",
        "subtitle": "Pristine beach near Villasimius, Sardinia, Italy.",
        "lat": 39.027,
        "lon": 9.539,
        "type": "beach",
        "class": "natural",
        "confidence": 0.9,
        "rank": 2,
        "page": 7,
        "hierarchy": [
            "Spiaggia di Punta Molentis",
            "Villasimius",
            "Sardinia",
            "Italy"
        ]
    },
    {
        "title": "Sella del Diavolo",
        "subtitle": "Iconic promontory near Poetto Beach, Cagliari, Sardinia, Italy.",
        "lat": 39.186,
        "lon": 9.176,
        "type": "headland",
        "class": "natural",
        "confidence": 0.92,
        "rank": 2,
        "page": 8,
        "hierarchy": [
            "Sella del Diavolo",
            "Cagliari",
            "Sardinia",
            "Italy"
        ]
    }
]