[
    {
        "title": "Eilean Donan Castle",
        "subtitle": "Historic castle in the Scottish Highlands.",
        "lat": 57.273611,
        "lon": -5.516111,
        "type": "castle",
        "class": "building",
        "confidence": 1.0,
        "rank": 1,
        "page": 1
    },
    {
        "title": "Old Man of Storr",
        "subtitle": "Iconic rock pinnacle on the Isle of Skye.",
        "lat": 57.456389,
        "lon": -6.166667,
        "type": "rock formation",
        "class": "natural",
        "confidence": 1.0,
        "rank": 2,
        "page": 2
    },
    {
        "title": "Mealt Falls",
        "subtitle": "Waterfall near Kilt Rock on the Isle of Skye.",
        "lat": 57.606667,
        "lon": -6.163611,
        "type": "waterfall",
        "class": "natural",
        "confidence": 1.0,
        "rank": 2,
        "page": 3
    },
    {
        "title": "St Andrews Cathedral",
        "subtitle": "Historic ruined cathedral in St Andrews, Scotland.",
        "lat": 56.340278,
        "lon": -2.788333,
        "type": "cathedral",
        "class": "historic",
        "confidence": 1.0,
        "rank": 1,
        "page": 4
    },
    {
        "title": "Fort William",
        "subtitle": "Town in the Scottish Highlands.",
        "lat": 56.816667,
        "lon": -5.1,
        "type": "town",
        "class": "place",
        "confidence": 1.0,
        "rank": 3,
        "page": 5
    },
    {
        "title": "Duncansby Stacks",
        "subtitle": "Sea stacks near John o' Groats, Scotland.",
        "lat": 58.647222,
        "lon": -3.037778,
        "type": "sea stack",
        "class": "natural",
        "confidence": 1.0,
        "rank": 2,
        "page": 6
    }
]