[
    {
        "title": "Iceland",
        "subtitle": "Nordic island nation",
        "lat": 64.9631,
        "lon": -19.0208,
        "type": "country",
        "class": "place",
        "confidence": 1.0,
        "rank": 7,
        "page": null
    },
    {
        "title": "Vatnaj\u00f6kull National Park",
        "subtitle": "Protected area with massive glaciers in Iceland",
        "lat": 64.2678,
        "lon": -16.0333,
        "type": "national_park",
        "class": "leisure",
        "confidence": 1.0,
        "rank": 2,
        "page": null
    },
    {
        "title": "Sn\u00e6fellsj\u00f6kull National Park",
        "subtitle": "Protected area with massive glaciers in Iceland",
        "lat": 64.8,
        "lon": -23.75,
        "type": "national_park",
        "class": "leisure",
        "confidence": 1.0,
        "rank": 2,
        "page": null
    },
    {
        "title": "Reykjavik",
        "subtitle": "Capital city of Iceland",
        "lat": 64.1265,
        "lon": -21.8174,
        "type": "city",
        "class": "place",
        "confidence": 1.0,
        "rank": 4,
        "page": null
    },
    {
        "title": "National Museum of Iceland",
        "subtitle": "Museum tracing Iceland\u2019s Viking history in Reykjavik",
        "lat": 64.1402,
        "lon": -21.9366,
        "type": "museum",
        "class": "amenity",
        "confidence": 0.9,
        "rank": 1,
        "page": null
    },
    {
        "title": "Saga Museum",
        "subtitle": "Museum tracing Iceland\u2019s Viking history in Reykjavik",
        "lat": 64.126,
        "lon": -21.9288,
        "type": "museum",
        "class": "amenity",
        "confidence": 0.9,
        "rank": 1,
        "page": null
    }
]