[
    {
        "title": "Charles Bridge",
        "subtitle": "Historic bridge connecting Old Town and Lesser Town, Prague",
        "lat": 50.0865,
        "lon": 14.4113,
        "type": "bridge",
        "class": "highway",
        "confidence": 0.98,
        "rank": 1,
        "page": 1,
        "hierarchy": [
            "Charles Bridge",
            "Prague",
            "Czech Republic"
        ]
    },
    {
        "title": "Prague Astronomical Clock",
        "subtitle": "Medieval clock on Old Town Hall in Prague",
        "lat": 50.0869,
        "lon": 14.4207,
        "type": "attraction",
        "class": "tourism",
        "confidence": 0.98,
        "rank": 1,
        "page": 2,
        "hierarchy": [
            "Prague Astronomical Clock",
            "Old Town Square",
            "Prague",
            "Czech Republic"
        ]
    },
    {
        "title": "Old Town Square",
        "subtitle": "Historic public square in the Old Town of Prague",
        "lat": 50.0878,
        "lon": 14.4214,
        "type": "square",
        "class": "place",
        "confidence": 0.98,
        "rank": 2,
        "page": 3,
        "hierarchy": [
            "Old Town Square",
            "Prague",
            "Czech Republic"
        ]
    },
    {
        "title": "The Dancing House",
        "subtitle": "Deconstructivist office building by Vlado Miluni\u0107 and Frank Gehry, Prague",
        "lat": 50.0763,
        "lon": 14.414,
        "type": "building",
        "class": "amenity",
        "confidence": 0.98,
        "rank": 1,
        "page": 5,
        "hierarchy": [
            "The Dancing House",
            "Prague",
            "Czech Republic"
        ]
    },
    {
        "title": "Charles Bridge",
        "subtitle": "Historic bridge connecting Old Town and Lesser Town, Prague",
        "lat": 50.0865,
        "lon": 14.4113,
        "type": "bridge",
        "class": "highway",
        "confidence": 0.98,
        "rank": 1,
        "page": 6,
        "hierarchy": [
            "Charles Bridge",
            "Prague",
            "Czech Republic"
        ]
    },
    {
        "title": "Prague Old Town",
        "subtitle": "Historic medieval urban district in Prague",
        "lat": 50.0877,
        "lon": 14.4214,
        "type": "neighbourhood",
        "class": "place",
        "confidence": 0.98,
        "rank": 2,
        "page": 7,
        "hierarchy": [
            "Old Town",
            "Prague",
            "Czech Republic"
        ]
    },
    {
        "title": "Vltava River",
        "subtitle": "Longest river within Czech Republic, flowing through Prague",
        "lat": 50.117,
        "lon": 14.42,
        "type": "river",
        "class": "natural",
        "confidence": 0.98,
        "rank": 8,
        "page": 8,
        "hierarchy": [
            "Vltava River",
            "Czech Republic"
        ]
    },
    {
        "title": "Old Town Square",
        "subtitle": "Historic public square in the Old Town of Prague",
        "lat": 50.0878,
        "lon": 14.4214,
        "type": "square",
        "class": "place",
        "confidence": 0.98,
        "rank": 2,
        "page": 9,
        "hierarchy": [
            "Old Town Square",
            "Prague",
            "Czech Republic"
        ]
    },
    {
        "title": "Prague Old Town",
        "subtitle": "Historic medieval urban district in Prague",
        "lat": 50.0877,
        "lon": 14.4214,
        "type": "neighbourhood",
        "class": "place",
        "confidence": 0.98,
        "rank": 2,
        "page": 10,
        "hierarchy": [
            "Old Town",
            "Prague",
            "Czech Republic"
        ]
    }
]