[
    {
        "title": "London",
        "subtitle": "Capital city of England and United Kingdom",
        "lat": 51.5073219,
        "lon": -0.1276474,
        "type": "city",
        "class": "place",
        "confidence": 1.0,
        "rank": 4,
        "page": null
    },
    {
        "title": "United Kingdom",
        "subtitle": "Sovereign country in Western Europe",
        "lat": 55.378051,
        "lon": -3.435973,
        "type": "country",
        "class": "place",
        "confidence": 1.0,
        "rank": 7,
        "page": null
    },
    {
        "title": "The Gherkin",
        "subtitle": "Iconic skyscraper in the City of London",
        "lat": 51.514498,
        "lon": -0.081827,
        "type": "building",
        "class": "building",
        "confidence": 1.0,
        "rank": 1,
        "page": null
    },
    {
        "title": "Tower Bridge",
        "subtitle": "Iconic bascule and suspension bridge in London",
        "lat": 51.50545,
        "lon": -0.07548,
        "type": "bridge",
        "class": "man_made",
        "confidence": 1.0,
        "rank": 1,
        "page": null
    },
    {
        "title": "Big Ben",
        "subtitle": "Famous clock tower at the Palace of Westminster",
        "lat": 51.5007292,
        "lon": -0.1246257,
        "type": "building",
        "class": "man_made",
        "confidence": 1.0,
        "rank": 1,
        "page": null
    },
    {
        "title": "Westminster",
        "subtitle": "Historic area in Central London, home to Parliament",
        "lat": 51.4994,
        "lon": -0.1248,
        "type": "neighbourhood",
        "class": "place",
        "confidence": 0.9,
        "rank": 2,
        "page": null
    }
]