[
    {
        "title": "Harads",
        "subtitle": "Village in Norrbotten County, Sweden",
        "lat": 66.08865,
        "lon": 20.94165,
        "type": "village",
        "class": "place",
        "confidence": 0.95,
        "rank": 3,
        "page": 1,
        "hierarchy": [
            "Harads",
            "Norrbotten County",
            "Sweden"
        ]
    },
    {
        "title": "Montana",
        "subtitle": "U.S. state known for its vast wilderness and national parks",
        "lat": 46.9219223,
        "lon": -109.6841804,
        "type": "state",
        "class": "place",
        "confidence": 0.95,
        "rank": 6,
        "page": 2,
        "hierarchy": [
            "Montana",
            "United States"
        ]
    },
    {
        "title": "Georgetown",
        "subtitle": "Coastal town in Sagadahoc County, Maine, United States",
        "lat": 43.7664724,
        "lon": -69.7547743,
        "type": "town",
        "class": "place",
        "confidence": 0.95,
        "rank": 3,
        "page": 3,
        "hierarchy": [
            "Georgetown",
            "Sagadahoc County",
            "Maine",
            "United States"
        ]
    },
    {
        "title": "Lapland",
        "subtitle": "Northernmost region of Finland, known for arctic nature",
        "lat": 67.2917711,
        "lon": 26.545803,
        "type": "region",
        "class": "place",
        "confidence": 0.95,
        "rank": 6,
        "page": 4,
        "hierarchy": [
            "Lapland",
            "Finland"
        ]
    },
    {
        "title": "Rovaniemi",
        "subtitle": "City in Lapland, Finland, home of Santa Claus Village",
        "lat": 66.4952097,
        "lon": 25.7230495,
        "type": "city",
        "class": "place",
        "confidence": 0.95,
        "rank": 4,
        "page": 5,
        "hierarchy": [
            "Rovaniemi",
            "Lapland",
            "Finland"
        ]
    }
]