[
    {
        "title": "Schinoussa",
        "subtitle": "Small island in the Cyclades, Greece",
        "lat": 36.8523,
        "lon": 25.2673,
        "type": "island",
        "class": "natural",
        "confidence": 1.0,
        "rank": 2,
        "page": 1
    },
    {
        "title": "Ios",
        "subtitle": "Popular Cycladic island in Greece",
        "lat": 36.717,
        "lon": 25.3283,
        "type": "island",
        "class": "natural",
        "confidence": 1.0,
        "rank": 2,
        "page": 2
    },
    {
        "title": "Patmos",
        "subtitle": "Dodecanese island known for St. John's Monastery",
        "lat": 37.3195,
        "lon": 26.5492,
        "type": "island",
        "class": "natural",
        "confidence": 1.0,
        "rank": 2,
        "page": 3
    },
    {
        "title": "Tinos",
        "subtitle": "Greek island in the Cyclades",
        "lat": 37.585,
        "lon": 25.138,
        "type": "island",
        "class": "natural",
        "confidence": 1.0,
        "rank": 2,
        "page": 4
    },
    {
        "title": "Ano Koufonisi",
        "subtitle": "Small island in the Small Cyclades",
        "lat": 36.8049,
        "lon": 25.2974,
        "type": "island",
        "class": "natural",
        "confidence": 1.0,
        "rank": 2,
        "page": 5
    },
    {
        "title": "Monemvasia",
        "subtitle": "Historic fortified town in Laconia, Peloponnese",
        "lat": 36.4678,
        "lon": 23.0406,
        "type": "town",
        "class": "place",
        "confidence": 1.0,
        "rank": 3,
        "page": 6
    },
    {
        "title": "Kimolos",
        "subtitle": "Small volcanic island in the Cyclades, Greece",
        "lat": 36.8016,
        "lon": 24.5458,
        "type": "island",
        "class": "natural",
        "confidence": 1.0,
        "rank": 2,
        "page": 7
    },
    {
        "title": "Milos",
        "subtitle": "Volcanic Greek island in the Cyclades",
        "lat": 36.702,
        "lon": 24.4533,
        "type": "island",
        "class": "natural",
        "confidence": 1.0,
        "rank": 2,
        "page": 8
    },
    {
        "title": "Naxos",
        "subtitle": "Largest island in the Cyclades, Greece",
        "lat": 37.0601,
        "lon": 25.467,
        "type": "island",
        "class": "natural",
        "confidence": 1.0,
        "rank": 2,
        "page": 9
    },
    {
        "title": "Serifos",
        "subtitle": "Cycladic island in the Aegean Sea, Greece",
        "lat": 37.15,
        "lon": 24.5,
        "type": "island",
        "class": "natural",
        "confidence": 1.0,
        "rank": 2,
        "page": 10
    }
]