[
    {
        "title": "Fukiware Falls",
        "subtitle": "Waterfall in Numata, Gunma Prefecture, Japan",
        "lat": 36.671389,
        "lon": 139.215556,
        "type": "waterfall",
        "class": "natural",
        "confidence": 0.95,
        "rank": 2,
        "page": 1,
        "hierarchy": [
            "Fukiware Falls",
            "Numata",
            "Gunma Prefecture",
            "Japan"
        ]
    },
    {
        "title": "Lake Haruna",
        "subtitle": "Caldera lake on Mount Haruna in Takasaki, Gunma Prefecture",
        "lat": 36.495278,
        "lon": 138.868611,
        "type": "lake",
        "class": "natural",
        "confidence": 0.95,
        "rank": 2,
        "page": 2,
        "hierarchy": [
            "Lake Haruna",
            "Takasaki",
            "Gunma Prefecture",
            "Japan"
        ]
    },
    {
        "title": "Shorinzan Daruma-ji Temple",
        "subtitle": "Buddhist temple famous for Daruma dolls in Takasaki, Gunma Prefecture",
        "lat": 36.3533,
        "lon": 139.0069,
        "type": "temple",
        "class": "amenity",
        "confidence": 0.92,
        "rank": 1,
        "page": 3,
        "hierarchy": [
            "Shorinzan Daruma-ji Temple",
            "Takasaki",
            "Gunma Prefecture",
            "Japan"
        ]
    },
    {
        "title": "Koizumi Inari Shrine",
        "subtitle": "Historic Shinto shrine in \u014cta, Gunma Prefecture, Japan",
        "lat": 36.273611,
        "lon": 139.388889,
        "type": "shrine",
        "class": "amenity",
        "confidence": 0.9,
        "rank": 1,
        "page": 4,
        "hierarchy": [
            "Koizumi Inari Shrine",
            "\u014cta",
            "Gunma Prefecture",
            "Japan"
        ]
    },
    {
        "title": "Kusatsu Onsen",
        "subtitle": "Famous hot spring resort town in Gunma Prefecture, Japan",
        "lat": 36.62,
        "lon": 138.5986,
        "type": "hot spring resort",
        "class": "place",
        "confidence": 0.96,
        "rank": 3,
        "page": 5,
        "hierarchy": [
            "Kusatsu Onsen",
            "Kusatsu",
            "Gunma Prefecture",
            "Japan"
        ]
    },
    {
        "title": "Hotoku-ji Temple",
        "subtitle": "Zen Buddhist temple known for its autumn leaves in Kiryu, Gunma Prefecture",
        "lat": 36.3768,
        "lon": 139.3236,
        "type": "temple",
        "class": "amenity",
        "confidence": 0.91,
        "rank": 1,
        "page": 6,
        "hierarchy": [
            "Hotoku-ji Temple",
            "Kiryu",
            "Gunma Prefecture",
            "Japan"
        ]
    },
    {
        "title": "Lake Okushima",
        "subtitle": "Dammed lake with distinct blue waters near Shima Onsen, Gunma Prefecture",
        "lat": 36.6385,
        "lon": 138.7408,
        "type": "lake",
        "class": "natural",
        "confidence": 0.93,
        "rank": 2,
        "page": 7,
        "hierarchy": [
            "Lake Okushima",
            "Nakanojo",
            "Gunma Prefecture",
            "Japan"
        ]
    },
    {
        "title": "Tanigawadake Ropeway",
        "subtitle": "Aerial lift system accessing Mount Tanigawa in Minakami, Gunma Prefecture",
        "lat": 36.8398,
        "lon": 138.9922,
        "type": "cable car station",
        "class": "amenity",
        "confidence": 0.94,
        "rank": 1,
        "page": 8,
        "hierarchy": [
            "Tanigawadake Ropeway",
            "Minakami",
            "Gunma Prefecture",
            "Japan"
        ]
    }
]