[
    {
        "title": "Jintoku Inari Shrine",
        "subtitle": "Shinto shrine known for its torii gates in Oita, Japan.",
        "lat": 33.250556,
        "lon": 131.606944,
        "type": "shrine",
        "class": "religious_building",
        "confidence": 0.95,
        "rank": 1,
        "page": 1,
        "hierarchy": [
            "Jintoku Inari Shrine",
            "\u014cita",
            "\u014cita Prefecture",
            "Japan"
        ]
    },
    {
        "title": "Sueyama Jinja Shrine",
        "subtitle": "Shinto shrine in Arita, Saga, Japan, famous for porcelain torii gates.",
        "lat": 33.19794,
        "lon": 129.87154,
        "type": "shrine",
        "class": "religious_building",
        "confidence": 0.95,
        "rank": 1,
        "page": 2,
        "hierarchy": [
            "Sueyama Jinja Shrine",
            "Arita",
            "Saga Prefecture",
            "Japan"
        ]
    },
    {
        "title": "Hoshiimo Shrine",
        "subtitle": "Shrine dedicated to dried sweet potatoes, located in Oarai, Ibaraki, Japan.",
        "lat": 36.3149,
        "lon": 140.596,
        "type": "shrine",
        "class": "religious_building",
        "confidence": 0.95,
        "rank": 1,
        "page": 3,
        "hierarchy": [
            "Hoshiimo Shrine",
            "\u014carai",
            "Ibaraki Prefecture",
            "Japan"
        ]
    },
    {
        "title": "Ryuo Shrine",
        "subtitle": "Shrine in Yatsushiro, Kumamoto, Japan, known for its unique torii gates.",
        "lat": 32.4939,
        "lon": 130.6022,
        "type": "shrine",
        "class": "religious_building",
        "confidence": 0.9,
        "rank": 1,
        "page": 4,
        "hierarchy": [
            "Ryuo Shrine",
            "Yatsushiro",
            "Kumamoto Prefecture",
            "Japan"
        ]
    },
    {
        "title": "Towada Shrine",
        "subtitle": "Historic shrine on the shores of Lake Towada, Aomori Prefecture, Japan.",
        "lat": 40.4856,
        "lon": 140.9168,
        "type": "shrine",
        "class": "religious_building",
        "confidence": 0.95,
        "rank": 1,
        "page": 5,
        "hierarchy": [
            "Towada Shrine",
            "Towada",
            "Aomori Prefecture",
            "Japan"
        ]
    },
    {
        "title": "Minato Shrine",
        "subtitle": "Shinto shrine in Sendai, Miyagi Prefecture, Japan.",
        "lat": 38.2573,
        "lon": 140.9934,
        "type": "shrine",
        "class": "religious_building",
        "confidence": 0.8,
        "rank": 1,
        "page": 6,
        "hierarchy": [
            "Minato Shrine",
            "Sendai",
            "Miyagi Prefecture",
            "Japan"
        ]
    },
    {
        "title": "Golden Torii",
        "subtitle": "A famous golden torii gate at Kotohira-gu shrine in Kagawa, Japan.",
        "lat": 34.2001,
        "lon": 133.7915,
        "type": "torii",
        "class": "religious_structure",
        "confidence": 0.9,
        "rank": 1,
        "page": 7,
        "hierarchy": [
            "Golden Torii",
            "Kotohira-g\u016b",
            "Kotohira",
            "Kagawa Prefecture",
            "Japan"
        ]
    },
    {
        "title": "Futamigaura Torii",
        "subtitle": "Torii gate at Futamigaura beach, associated with Sakurai Shrine, Itoshima, Japan.",
        "lat": 33.6268,
        "lon": 130.1557,
        "type": "torii",
        "class": "religious_structure",
        "confidence": 0.95,
        "rank": 1,
        "page": 8,
        "hierarchy": [
            "Futamigaura Torii",
            "Sakurai Shrine",
            "Itoshima",
            "Fukuoka Prefecture",
            "Japan"
        ]
    },
    {
        "title": "Arahitokamisha Shrine",
        "subtitle": "Shinto shrine located in Miyama, Fukuoka Prefecture, Japan.",
        "lat": 33.1552,
        "lon": 130.4354,
        "type": "shrine",
        "class": "religious_building",
        "confidence": 0.95,
        "rank": 1,
        "page": 9,
        "hierarchy": [
            "Arahitokamisha Shrine",
            "Miyama",
            "Fukuoka Prefecture",
            "Japan"
        ]
    },
    {
        "title": "Saidoji Temple",
        "subtitle": "Buddhist temple in Matsuyama, Ehime Prefecture, Japan.",
        "lat": 33.8569,
        "lon": 132.8447,
        "type": "temple",
        "class": "religious_building",
        "confidence": 0.8,
        "rank": 1,
        "page": 10,
        "hierarchy": [
            "Saidoji Temple",
            "Matsuyama",
            "Ehime Prefecture",
            "Japan"
        ]
    }
]