[
    {
        "title": "Puy de D\u00f4me",
        "subtitle": "Volcano in the Massif Central",
        "lat": 45.7725,
        "lon": 2.9633,
        "type": "volcano",
        "class": "natural",
        "confidence": 0.9,
        "rank": 2,
        "page": 1,
        "hierarchy": [
            "Puy de D\u00f4me",
            "Puy-de-D\u00f4me",
            "Auvergne-Rh\u00f4ne-Alpes",
            "France"
        ]
    },
    {
        "title": "Palais Id\u00e9al du Facteur Cheval",
        "subtitle": "Unique postman's palace in Hauterives",
        "lat": 45.2536,
        "lon": 5.0289,
        "type": "building",
        "class": "tourism",
        "confidence": 0.9,
        "rank": 1,
        "page": 2,
        "hierarchy": [
            "Palais Id\u00e9al du Facteur Cheval",
            "Hauterives",
            "Dr\u00f4me",
            "Auvergne-Rh\u00f4ne-Alpes",
            "France"
        ]
    },
    {
        "title": "Grottes de Choranche",
        "subtitle": "Limestone caves in the Vercors Regional Park",
        "lat": 45.0683,
        "lon": 5.3725,
        "type": "cave",
        "class": "natural",
        "confidence": 0.9,
        "rank": 2,
        "page": 3,
        "hierarchy": [
            "Grottes de Choranche",
            "Choranche",
            "Is\u00e8re",
            "Auvergne-Rh\u00f4ne-Alpes",
            "France"
        ]
    },
    {
        "title": "Lacets de Montvernier",
        "subtitle": "Scenic hairpin road in the French Alps",
        "lat": 45.3039,
        "lon": 6.3314,
        "type": "road",
        "class": "highway",
        "confidence": 0.9,
        "rank": 2,
        "page": 4,
        "hierarchy": [
            "Lacets de Montvernier",
            "Montvernier",
            "Savoie",
            "Auvergne-Rh\u00f4ne-Alpes",
            "France"
        ]
    },
    {
        "title": "Lac d\u2019Annecy Viewpoint",
        "subtitle": "Scenic spot overlooking Lake Annecy",
        "lat": 45.8084849,
        "lon": 6.2444126,
        "type": "viewpoint",
        "class": "tourism",
        "confidence": 0.95,
        "rank": 2,
        "page": 5,
        "hierarchy": [
            "Lac d\u2019Annecy Viewpoint",
            "Veyrier-du-Lac",
            "Haute-Savoie",
            "Auvergne-Rh\u00f4ne-Alpes",
            "France"
        ]
    },
    {
        "title": "Mer de Glace & Ice Cave",
        "subtitle": "Glacier and ice cave accessed by Montenvers train",
        "lat": 45.9324,
        "lon": 6.9377,
        "type": "glacier",
        "class": "natural",
        "confidence": 0.9,
        "rank": 2,
        "page": 6,
        "hierarchy": [
            "Mer de Glace",
            "Chamonix-Mont-Blanc",
            "Haute-Savoie",
            "Auvergne-Rh\u00f4ne-Alpes",
            "France"
        ]
    },
    {
        "title": "Lacs des Ch\u00e9serys",
        "subtitle": "Alpine lakes in the Aiguilles Rouges massif",
        "lat": 45.9675,
        "lon": 6.8667,
        "type": "lake",
        "class": "natural",
        "confidence": 0.9,
        "rank": 2,
        "page": 7,
        "hierarchy": [
            "Lacs des Ch\u00e9serys",
            "Chamonix-Mont-Blanc",
            "Haute-Savoie",
            "Auvergne-Rh\u00f4ne-Alpes",
            "France"
        ]
    },
    {
        "title": "Belv\u00e9d\u00e8re des 3 Lacs (Is\u00e8re)",
        "subtitle": "Panoramic viewpoint overlooking three lakes",
        "lat": 45.4215,
        "lon": 5.922,
        "type": "viewpoint",
        "class": "tourism",
        "confidence": 0.8,
        "rank": 1,
        "page": 8,
        "hierarchy": [
            "Belv\u00e9d\u00e8re des 3 Lacs",
            "Le Touvet",
            "Is\u00e8re",
            "Auvergne-Rh\u00f4ne-Alpes",
            "France"
        ]
    },
    {
        "title": "Cascades du H\u00e9risson",
        "subtitle": "Series of waterfalls in the Jura department",
        "lat": 46.6133,
        "lon": 5.86,
        "type": "waterfall",
        "class": "natural",
        "confidence": 0.9,
        "rank": 2,
        "page": 9,
        "hierarchy": [
            "Cascades du H\u00e9risson",
            "M\u00e9n\u00e9trux-en-Joux",
            "Jura",
            "Bourgogne-Franche-Comt\u00e9",
            "France"
        ]
    }
]