[
    {
        "title": "Cuevas del Valle",
        "subtitle": "Village in \u00c1vila, Spain",
        "lat": 40.3153,
        "lon": -4.9545,
        "type": "village",
        "class": "place",
        "confidence": 0.95,
        "rank": 3,
        "page": 1,
        "hierarchy": [
            "Cuevas del Valle",
            "\u00c1vila",
            "Castile and Le\u00f3n",
            "Spain"
        ]
    },
    {
        "title": "Mombeltr\u00e1n",
        "subtitle": "Village in \u00c1vila, Spain",
        "lat": 40.2442,
        "lon": -4.9451,
        "type": "village",
        "class": "place",
        "confidence": 0.95,
        "rank": 3,
        "page": 2,
        "hierarchy": [
            "Mombeltr\u00e1n",
            "\u00c1vila",
            "Castile and Le\u00f3n",
            "Spain"
        ]
    },
    {
        "title": "Pozos de Felipe",
        "subtitle": "Natural pools in Guisando, Spain",
        "lat": 40.2852,
        "lon": -5.0594,
        "type": "natural_feature",
        "class": "natural",
        "confidence": 0.9,
        "rank": 2,
        "page": 3,
        "hierarchy": [
            "Pozos de Felipe",
            "Guisando",
            "\u00c1vila",
            "Castile and Le\u00f3n",
            "Spain"
        ]
    },
    {
        "title": "Villarejo del Valle",
        "subtitle": "Village in \u00c1vila, Spain",
        "lat": 40.252,
        "lon": -4.9922,
        "type": "village",
        "class": "place",
        "confidence": 0.95,
        "rank": 3,
        "page": 4,
        "hierarchy": [
            "Villarejo del Valle",
            "\u00c1vila",
            "Castile and Le\u00f3n",
            "Spain"
        ]
    },
    {
        "title": "San Esteban del Valle",
        "subtitle": "Village in \u00c1vila, Spain",
        "lat": 40.2372,
        "lon": -5.009,
        "type": "village",
        "class": "place",
        "confidence": 0.95,
        "rank": 3,
        "page": 5,
        "hierarchy": [
            "San Esteban del Valle",
            "\u00c1vila",
            "Castile and Le\u00f3n",
            "Spain"
        ]
    },
    {
        "title": "Santa Cruz del Valle",
        "subtitle": "Village in \u00c1vila, Spain",
        "lat": 40.2265,
        "lon": -4.9812,
        "type": "village",
        "class": "place",
        "confidence": 0.95,
        "rank": 3,
        "page": 6,
        "hierarchy": [
            "Santa Cruz del Valle",
            "\u00c1vila",
            "Castile and Le\u00f3n",
            "Spain"
        ]
    },
    {
        "title": "The Teepee Glamp",
        "subtitle": "Glamping accommodation in Hoyos del Espino",
        "lat": 40.3204,
        "lon": -5.1978,
        "type": "lodging",
        "class": "tourism",
        "confidence": 0.9,
        "rank": 1,
        "page": 7,
        "hierarchy": [
            "The Teepee Glamp",
            "Hoyos del Espino",
            "\u00c1vila",
            "Castile and Le\u00f3n",
            "Spain"
        ]
    },
    {
        "title": "Guisando",
        "subtitle": "Village in \u00c1vila, Spain",
        "lat": 40.2393,
        "lon": -5.0581,
        "type": "village",
        "class": "place",
        "confidence": 0.95,
        "rank": 3,
        "page": 8,
        "hierarchy": [
            "Guisando",
            "\u00c1vila",
            "Castile and Le\u00f3n",
            "Spain"
        ]
    },
    {
        "title": "Charco Verde",
        "subtitle": "Natural pool near Guisando, Spain",
        "lat": 40.2371,
        "lon": -5.0683,
        "type": "natural_feature",
        "class": "natural",
        "confidence": 0.9,
        "rank": 2,
        "page": 9,
        "hierarchy": [
            "Charco Verde",
            "Guisando",
            "\u00c1vila",
            "Castile and Le\u00f3n",
            "Spain"
        ]
    },
    {
        "title": "Parque Magal\u00edtico La Gua\u00f1a",
        "subtitle": "Megalithic park in Guisando, Spain",
        "lat": 40.2461,
        "lon": -5.0584,
        "type": "archaeological_site",
        "class": "tourism",
        "confidence": 0.9,
        "rank": 2,
        "page": 10,
        "hierarchy": [
            "Parque Magal\u00edtico La Gua\u00f1a",
            "Guisando",
            "\u00c1vila",
            "Castile and Le\u00f3n",
            "Spain"
        ]
    },
    {
        "title": "Candeleda",
        "subtitle": "Municipality in \u00c1vila, Spain",
        "lat": 40.1342,
        "lon": -5.2415,
        "type": "town",
        "class": "place",
        "confidence": 0.95,
        "rank": 3,
        "page": 11,
        "hierarchy": [
            "Candeleda",
            "\u00c1vila",
            "Castile and Le\u00f3n",
            "Spain"
        ]
    },
    {
        "title": "Cuevas del \u00c1guila",
        "subtitle": "Natural caves near Candeleda, Spain",
        "lat": 40.158,
        "lon": -5.201,
        "type": "cave",
        "class": "natural",
        "confidence": 0.95,
        "rank": 1,
        "page": 12,
        "hierarchy": [
            "Cuevas del \u00c1guila",
            "Ramacasta\u00f1as",
            "Candeleda",
            "\u00c1vila",
            "Castile and Le\u00f3n",
            "Spain"
        ]
    }
]