[
    {
        "title": "\u010cesk\u00fd Krumlov Castle Tower",
        "subtitle": "Panoramic city views from the historic castle tower",
        "lat": 48.81045,
        "lon": 14.31508,
        "type": "tower",
        "class": "tourism",
        "confidence": 0.95,
        "rank": 1,
        "page": 1,
        "hierarchy": [
            "\u010cesk\u00fd Krumlov Castle Tower",
            "\u010cesk\u00fd Krumlov",
            "South Bohemia",
            "Czech Republic"
        ]
    },
    {
        "title": "\u010cesk\u00fd Krumlov Castle Gardens",
        "subtitle": "Dreamy Baroque gardens of \u010cesk\u00fd Krumlov Castle",
        "lat": 48.8118,
        "lon": 14.3117,
        "type": "garden",
        "class": "leisure",
        "confidence": 0.95,
        "rank": 2,
        "page": 2,
        "hierarchy": [
            "\u010cesk\u00fd Krumlov Castle Gardens",
            "\u010cesk\u00fd Krumlov",
            "South Bohemia",
            "Czech Republic"
        ]
    },
    {
        "title": "Vltava River",
        "subtitle": "River flowing through \u010cesk\u00fd Krumlov, known for rafting",
        "lat": 48.8104,
        "lon": 14.3168,
        "type": "river",
        "class": "natural",
        "confidence": 0.9,
        "rank": 8,
        "page": 3,
        "hierarchy": [
            "Vltava River",
            "\u010cesk\u00fd Krumlov",
            "South Bohemia",
            "Czech Republic"
        ]
    },
    {
        "title": "Pivovarsk\u00e1 restaurace Port 1560",
        "subtitle": "Historic brewery restaurant in \u010cesk\u00fd Krumlov",
        "lat": 48.81068,
        "lon": 14.31939,
        "type": "restaurant",
        "class": "amenity",
        "confidence": 0.9,
        "rank": 1,
        "page": 4,
        "hierarchy": [
            "Pivovarsk\u00e1 restaurace Port 1560",
            "\u010cesk\u00fd Krumlov",
            "South Bohemia",
            "Czech Republic"
        ]
    },
    {
        "title": "Hotel OldInn",
        "subtitle": "Centrally located hotel with views of \u010cesk\u00fd Krumlov Castle",
        "lat": 48.8123,
        "lon": 14.3169,
        "type": "hotel",
        "class": "lodging",
        "confidence": 0.95,
        "rank": 1,
        "page": 5,
        "hierarchy": [
            "Hotel OldInn",
            "\u010cesk\u00fd Krumlov",
            "South Bohemia",
            "Czech Republic"
        ]
    }
]