[
    {
        "title": "Twin Lagoon",
        "subtitle": "Stunning lagoon in Coron, Palawan, Philippines",
        "lat": 11.9868,
        "lon": 120.2115,
        "type": "lagoon",
        "class": "natural",
        "confidence": 0.95,
        "rank": 1,
        "page": 1,
        "hierarchy": [
            "Twin Lagoon",
            "Coron",
            "Palawan",
            "Philippines"
        ]
    },
    {
        "title": "Loboc River",
        "subtitle": "Scenic river in Bohol, Philippines, famous for river cruises",
        "lat": 9.6587,
        "lon": 124.0152,
        "type": "river",
        "class": "natural",
        "confidence": 0.95,
        "rank": 1,
        "page": 2,
        "hierarchy": [
            "Loboc River",
            "Loboc",
            "Bohol",
            "Philippines"
        ]
    },
    {
        "title": "Twin Beach",
        "subtitle": "Beautiful beach in Linapacan, Palawan, Philippines",
        "lat": 11.9427,
        "lon": 119.8967,
        "type": "beach",
        "class": "natural",
        "confidence": 0.9,
        "rank": 1,
        "page": 3,
        "hierarchy": [
            "Twin Beach",
            "Linapacan",
            "Palawan",
            "Philippines"
        ]
    },
    {
        "title": "Sabtang Island",
        "subtitle": "Island municipality in Batanes, Philippines, known for stone houses",
        "lat": 20.37,
        "lon": 121.84,
        "type": "island",
        "class": "place",
        "confidence": 0.95,
        "rank": 3,
        "page": 4,
        "hierarchy": [
            "Sabtang Island",
            "Batanes",
            "Philippines"
        ]
    },
    {
        "title": "Big Lagoon",
        "subtitle": "Iconic limestone lagoon in El Nido, Palawan, Philippines",
        "lat": 11.2185,
        "lon": 119.3364,
        "type": "lagoon",
        "class": "natural",
        "confidence": 0.95,
        "rank": 1,
        "page": 5,
        "hierarchy": [
            "Big Lagoon",
            "El Nido",
            "Palawan",
            "Philippines"
        ]
    },
    {
        "title": "Bulabog Beach",
        "subtitle": "Beach on Boracay Island, Philippines, popular for watersports",
        "lat": 11.9678,
        "lon": 121.9298,
        "type": "beach",
        "class": "natural",
        "confidence": 0.95,
        "rank": 1,
        "page": 6,
        "hierarchy": [
            "Bulabog Beach",
            "Boracay Island",
            "Malay",
            "Aklan",
            "Philippines"
        ]
    },
    {
        "title": "Mansalangan Beach",
        "subtitle": "Remote white sand beach in Balabac, Palawan, Philippines",
        "lat": 8.0197,
        "lon": 117.0601,
        "type": "beach",
        "class": "natural",
        "confidence": 0.9,
        "rank": 1,
        "page": 7,
        "hierarchy": [
            "Mansalangan Beach",
            "Balabac",
            "Palawan",
            "Philippines"
        ]
    },
    {
        "title": "Banul Beach",
        "subtitle": "Secluded beach with white sand in Coron, Palawan, Philippines",
        "lat": 11.9862,
        "lon": 120.2131,
        "type": "beach",
        "class": "natural",
        "confidence": 0.9,
        "rank": 1,
        "page": 8,
        "hierarchy": [
            "Banul Beach",
            "Coron",
            "Palawan",
            "Philippines"
        ]
    },
    {
        "title": "Magpupungko Rock Pools",
        "subtitle": "Tidal rock pools and flat rocks in Siargao, Philippines",
        "lat": 9.94,
        "lon": 126.066,
        "type": "natural_feature",
        "class": "natural",
        "confidence": 0.95,
        "rank": 1,
        "page": 9,
        "hierarchy": [
            "Magpupungko Rock Pools",
            "Pilar",
            "Siargao Island",
            "Surigao del Norte",
            "Philippines"
        ]
    },
    {
        "title": "Pinagbuyutan Island",
        "subtitle": "Picturesque island in El Nido, Palawan, known for towering cliffs",
        "lat": 11.2319,
        "lon": 119.2906,
        "type": "island",
        "class": "place",
        "confidence": 0.95,
        "rank": 1,
        "page": 10,
        "hierarchy": [
            "Pinagbuyutan Island",
            "El Nido",
            "Palawan",
            "Philippines"
        ]
    }
]