[
    {
        "title": "Mykonos",
        "subtitle": "Greek island in the Aegean Sea, known for nightlife.",
        "lat": 37.4462744,
        "lon": 25.3279148,
        "type": "island",
        "class": "place",
        "confidence": 1.0,
        "rank": 3,
        "page": 1,
        "hierarchy": [
            "Mykonos",
            "South Aegean",
            "Greece"
        ]
    },
    {
        "title": "Milos",
        "subtitle": "Volcanic Greek island in the Aegean Sea.",
        "lat": 36.671317,
        "lon": 24.4371914,
        "type": "island",
        "class": "place",
        "confidence": 1.0,
        "rank": 3,
        "page": 2,
        "hierarchy": [
            "Milos",
            "South Aegean",
            "Greece"
        ]
    },
    {
        "title": "Paros",
        "subtitle": "Greek island in the central Aegean Sea.",
        "lat": 37.049449,
        "lon": 25.1477728,
        "type": "island",
        "class": "place",
        "confidence": 1.0,
        "rank": 3,
        "page": 3,
        "hierarchy": [
            "Paros",
            "South Aegean",
            "Greece"
        ]
    },
    {
        "title": "Santorini",
        "subtitle": "Cycladic island group in the Aegean Sea.",
        "lat": 36.4087113,
        "lon": 25.4385289,
        "type": "island_group",
        "class": "place",
        "confidence": 1.0,
        "rank": 3,
        "page": 4,
        "hierarchy": [
            "Santorini",
            "South Aegean",
            "Greece"
        ]
    },
    {
        "title": "Syros",
        "subtitle": "Greek island in the Cyclades archipelago.",
        "lat": 37.4414008,
        "lon": 24.9458039,
        "type": "island",
        "class": "place",
        "confidence": 1.0,
        "rank": 3,
        "page": 5,
        "hierarchy": [
            "Syros",
            "South Aegean",
            "Greece"
        ]
    },
    {
        "title": "Naxos",
        "subtitle": "Largest of the Cyclades island group.",
        "lat": 37.0601449,
        "lon": 25.4057857,
        "type": "island",
        "class": "place",
        "confidence": 1.0,
        "rank": 3,
        "page": 6,
        "hierarchy": [
            "Naxos",
            "South Aegean",
            "Greece"
        ]
    },
    {
        "title": "Rhodes",
        "subtitle": "Largest of the Dodecanese islands, historical sites.",
        "lat": 36.195679,
        "lon": 27.9702219,
        "type": "island",
        "class": "place",
        "confidence": 1.0,
        "rank": 3,
        "page": 7,
        "hierarchy": [
            "Rhodes",
            "South Aegean",
            "Greece"
        ]
    }
]