[
    {
        "title": "Unagi Obana",
        "subtitle": "Traditional Japanese unagi restaurant in Tokyo.",
        "lat": 35.733799,
        "lon": 139.789184,
        "type": "restaurant",
        "class": "amenity",
        "confidence": 0.95,
        "rank": 1,
        "page": 1
    },
    {
        "title": "Tsujihan ZEITAKU DON",
        "subtitle": "Japanese seafood rice bowl restaurant in Tokyo.",
        "lat": 35.684128,
        "lon": 139.773539,
        "type": "restaurant",
        "class": "amenity",
        "confidence": 0.95,
        "rank": 1,
        "page": 2
    },
    {
        "title": "Nakiryu",
        "subtitle": "Michelin-starred ramen restaurant in Tokyo.",
        "lat": 35.728956,
        "lon": 139.728643,
        "type": "restaurant",
        "class": "amenity",
        "confidence": 0.95,
        "rank": 1,
        "page": 3
    },
    {
        "title": "Udon Shin",
        "subtitle": "Popular udon noodle restaurant in Tokyo.",
        "lat": 35.682337,
        "lon": 139.699961,
        "type": "restaurant",
        "class": "amenity",
        "confidence": 0.95,
        "rank": 1,
        "page": 4
    },
    {
        "title": "Tonkatsu Marushichi Fukagawa Fudo",
        "subtitle": "Renowned tonkatsu restaurant in Tokyo.",
        "lat": 35.679104,
        "lon": 139.795861,
        "type": "restaurant",
        "class": "amenity",
        "confidence": 0.95,
        "rank": 1,
        "page": 5
    }
]