[
    {
        "title": "Mari Ermi",
        "subtitle": "Beach in Cabras, Sardinia",
        "lat": 39.92388,
        "lon": 8.44855,
        "type": "beach",
        "class": "natural",
        "confidence": 0.95,
        "rank": 2,
        "page": 1,
        "hierarchy": [
            "Mari Ermi",
            "Cabras",
            "Oristano",
            "Sardinia",
            "Italy"
        ]
    },
    {
        "title": "Scala dei Turchi",
        "subtitle": "White rock cliff in Realmonte, Sicily",
        "lat": 37.28916,
        "lon": 13.48361,
        "type": "cliff",
        "class": "natural",
        "confidence": 0.95,
        "rank": 2,
        "page": 2,
        "hierarchy": [
            "Scala dei Turchi",
            "Realmonte",
            "Agrigento",
            "Sicily",
            "Italy"
        ]
    },
    {
        "title": "Castro Marina",
        "subtitle": "Coastal town in Lecce, Puglia",
        "lat": 40.0006,
        "lon": 18.4285,
        "type": "locality",
        "class": "place",
        "confidence": 0.95,
        "rank": 3,
        "page": 3,
        "hierarchy": [
            "Castro Marina",
            "Castro",
            "Lecce",
            "Puglia",
            "Italy"
        ]
    },
    {
        "title": "Torre Sant'Andrea",
        "subtitle": "Coastal resort in Melendugno, Puglia",
        "lat": 40.25203,
        "lon": 18.41785,
        "type": "locality",
        "class": "place",
        "confidence": 0.95,
        "rank": 3,
        "page": 4,
        "hierarchy": [
            "Torre Sant'Andrea",
            "Melendugno",
            "Lecce",
            "Puglia",
            "Italy"
        ]
    },
    {
        "title": "Cala Corsara",
        "subtitle": "Beach on Spargi Island, Sardinia",
        "lat": 41.13961,
        "lon": 9.35166,
        "type": "beach",
        "class": "natural",
        "confidence": 0.95,
        "rank": 2,
        "page": 5,
        "hierarchy": [
            "Cala Corsara",
            "Spargi Island",
            "La Maddalena",
            "Sassari",
            "Sardinia",
            "Italy"
        ]
    },
    {
        "title": "Porto Flavia",
        "subtitle": "Historic mining port in Iglesias, Sardinia",
        "lat": 39.33611,
        "lon": 8.44167,
        "type": "historic_site",
        "class": "amenity",
        "confidence": 0.95,
        "rank": 1,
        "page": 6,
        "hierarchy": [
            "Porto Flavia",
            "Iglesias",
            "South Sardinia",
            "Sardinia",
            "Italy"
        ]
    },
    {
        "title": "Punta Molentis",
        "subtitle": "Beach in Villasimius, Sardinia",
        "lat": 39.1129,
        "lon": 9.5807,
        "type": "beach",
        "class": "natural",
        "confidence": 0.95,
        "rank": 2,
        "page": 7,
        "hierarchy": [
            "Punta Molentis",
            "Villasimius",
            "South Sardinia",
            "Sardinia",
            "Italy"
        ]
    },
    {
        "title": "Arco Magno",
        "subtitle": "Natural arch in San Nicola Arcella, Calabria",
        "lat": 39.8008,
        "lon": 15.7725,
        "type": "natural_arch",
        "class": "natural",
        "confidence": 0.95,
        "rank": 2,
        "page": 8,
        "hierarchy": [
            "Arco Magno",
            "San Nicola Arcella",
            "Cosenza",
            "Calabria",
            "Italy"
        ]
    }
]