[
    {
        "title": "Kumamoto City",
        "subtitle": "Capital city of Kumamoto Prefecture in Japan.",
        "lat": 32.7909,
        "lon": 130.748,
        "type": "city",
        "class": "place",
        "confidence": 0.9,
        "rank": 4,
        "page": 1,
        "hierarchy": [
            "Kumamoto City",
            "Kumamoto Prefecture",
            "Japan"
        ]
    },
    {
        "title": "Mount Aso",
        "subtitle": "Active volcano in Kumamoto Prefecture, Japan.",
        "lat": 32.8858,
        "lon": 131.0969,
        "type": "volcano",
        "class": "natural",
        "confidence": 0.95,
        "rank": 1,
        "page": 2,
        "hierarchy": [
            "Mount Aso",
            "Aso",
            "Kumamoto Prefecture",
            "Japan"
        ]
    },
    {
        "title": "Nabegataki Falls",
        "subtitle": "Scenic waterfall in Oguni, Kumamoto, known for its curtain-like flow.",
        "lat": 33.0033,
        "lon": 131.0264,
        "type": "waterfall",
        "class": "natural",
        "confidence": 0.95,
        "rank": 1,
        "page": 3,
        "hierarchy": [
            "Nabegataki Falls",
            "Oguni",
            "Kumamoto Prefecture",
            "Japan"
        ]
    },
    {
        "title": "Kuma River",
        "subtitle": "One of Japan's three fastest rivers, known for rafting.",
        "lat": 32.4833,
        "lon": 130.6833,
        "type": "river",
        "class": "natural",
        "confidence": 0.95,
        "rank": 1,
        "page": 4,
        "hierarchy": [
            "Kuma River",
            "Kumamoto Prefecture",
            "Japan"
        ]
    },
    {
        "title": "Yakushima Island",
        "subtitle": "Subtropical island in Kagoshima Prefecture, a UNESCO World Heritage Site.",
        "lat": 30.3422,
        "lon": 130.505,
        "type": "island",
        "class": "natural",
        "confidence": 0.9,
        "rank": 2,
        "page": 5,
        "hierarchy": [
            "Yakushima Island",
            "Kagoshima Prefecture",
            "Japan"
        ]
    },
    {
        "title": "Jomon Sugi",
        "subtitle": "Ancient cedar tree on Yakushima Island, Japan, over 2,000 years old.",
        "lat": 30.3475,
        "lon": 130.5401,
        "type": "tree",
        "class": "natural",
        "confidence": 0.9,
        "rank": 1,
        "page": 6,
        "hierarchy": [
            "Jomon Sugi",
            "Yakushima Island",
            "Kagoshima Prefecture",
            "Japan"
        ]
    },
    {
        "title": "Seibu Rindo Forest Path",
        "subtitle": "Scenic forest road on Yakushima Island, offering wildlife viewing.",
        "lat": 30.3236,
        "lon": 130.4072,
        "type": "trail",
        "class": "leisure",
        "confidence": 0.85,
        "rank": 2,
        "page": 7,
        "hierarchy": [
            "Seibu Rindo Forest Path",
            "Yakushima Island",
            "Kagoshima Prefecture",
            "Japan"
        ]
    },
    {
        "title": "Shiratani Unsuikyo Ravine",
        "subtitle": "Lush, moss-covered ravine on Yakushima Island, inspiring Ghibli films.",
        "lat": 30.3758,
        "lon": 130.5828,
        "type": "ravine",
        "class": "natural",
        "confidence": 0.95,
        "rank": 1,
        "page": 8,
        "hierarchy": [
            "Shiratani Unsuikyo Ravine",
            "Yakushima Island",
            "Kagoshima Prefecture",
            "Japan"
        ]
    },
    {
        "title": "Okinawa Island",
        "subtitle": "Largest of the Okinawa Prefecture islands, known for beaches and history.",
        "lat": 26.5,
        "lon": 127.9833,
        "type": "island",
        "class": "natural",
        "confidence": 0.9,
        "rank": 2,
        "page": 9,
        "hierarchy": [
            "Okinawa Island",
            "Okinawa Prefecture",
            "Japan"
        ]
    },
    {
        "title": "Yanbaru National Park",
        "subtitle": "Subtropical forest park in northern Okinawa Island, rich in biodiversity.",
        "lat": 26.7869,
        "lon": 128.2568,
        "type": "national_park",
        "class": "leisure",
        "confidence": 0.9,
        "rank": 2,
        "page": 10,
        "hierarchy": [
            "Yanbaru National Park",
            "Okinawa Island",
            "Okinawa Prefecture",
            "Japan"
        ]
    },
    {
        "title": "Beach 51",
        "subtitle": "Popular snorkeling spot in Onna, Okinawa, with clear waters.",
        "lat": 26.5053,
        "lon": 127.8427,
        "type": "beach",
        "class": "natural",
        "confidence": 0.8,
        "rank": 1,
        "page": 11,
        "hierarchy": [
            "Beach 51",
            "Onna",
            "Okinawa Island",
            "Okinawa Prefecture",
            "Japan"
        ]
    },
    {
        "title": "Ishigaki Island",
        "subtitle": "Island in Okinawa Prefecture, famous for beaches and coral reefs.",
        "lat": 24.3858,
        "lon": 124.1622,
        "type": "island",
        "class": "natural",
        "confidence": 0.9,
        "rank": 2,
        "page": 12,
        "hierarchy": [
            "Ishigaki Island",
            "Okinawa Prefecture",
            "Japan"
        ]
    },
    {
        "title": "Nagano Prefecture",
        "subtitle": "Mountainous prefecture in Japan, known for skiing and natural beauty.",
        "lat": 36.65,
        "lon": 138.1833,
        "type": "prefecture",
        "class": "place",
        "confidence": 0.9,
        "rank": 5,
        "page": 13,
        "hierarchy": [
            "Nagano Prefecture",
            "Chubu Region",
            "Japan"
        ]
    },
    {
        "title": "Hakuba Village",
        "subtitle": "Popular ski resort village in the Japanese Alps, Nagano Prefecture.",
        "lat": 36.7288,
        "lon": 137.8458,
        "type": "village",
        "class": "place",
        "confidence": 0.9,
        "rank": 3,
        "page": 14,
        "hierarchy": [
            "Hakuba Village",
            "Nagano Prefecture",
            "Japan"
        ]
    },
    {
        "title": "Takabocchi Kogen",
        "subtitle": "Highland plateau in Shiojiri, Nagano, offering panoramic views of Mt. Fuji.",
        "lat": 36.1466,
        "lon": 138.0772,
        "type": "plateau",
        "class": "natural",
        "confidence": 0.95,
        "rank": 1,
        "page": 15,
        "hierarchy": [
            "Takabocchi Kogen",
            "Shiojiri",
            "Nagano Prefecture",
            "Japan"
        ]
    },
    {
        "title": "Shizuoka Prefecture",
        "subtitle": "Prefecture in Japan known for green tea and Mt. Fuji views.",
        "lat": 34.9753,
        "lon": 138.3838,
        "type": "prefecture",
        "class": "place",
        "confidence": 0.9,
        "rank": 5,
        "page": 16,
        "hierarchy": [
            "Shizuoka Prefecture",
            "Chubu Region",
            "Japan"
        ]
    },
    {
        "title": "Nakatajima Sand Dunes",
        "subtitle": "Expansive coastal sand dunes in Hamamatsu, Shizuoka Prefecture.",
        "lat": 34.6469,
        "lon": 137.7497,
        "type": "sand_dunes",
        "class": "natural",
        "confidence": 0.95,
        "rank": 1,
        "page": 17,
        "hierarchy": [
            "Nakatajima Sand Dunes",
            "Hamamatsu",
            "Shizuoka Prefecture",
            "Japan"
        ]
    },
    {
        "title": "Dogashima",
        "subtitle": "Scenic coastal area in Nishiizu, Shizuoka, famous for sea caves.",
        "lat": 34.8058,
        "lon": 138.7772,
        "type": "coastal_area",
        "class": "natural",
        "confidence": 0.95,
        "rank": 1,
        "page": 18,
        "hierarchy": [
            "Dogashima",
            "Nishiizu",
            "Shizuoka Prefecture",
            "Japan"
        ]
    },
    {
        "title": "Heda",
        "subtitle": "Coastal town in Numazu, Shizuoka, known for fishing port and bay.",
        "lat": 34.9127,
        "lon": 138.7497,
        "type": "town",
        "class": "place",
        "confidence": 0.9,
        "rank": 3,
        "page": 19,
        "hierarchy": [
            "Heda",
            "Numazu",
            "Shizuoka Prefecture",
            "Japan"
        ]
    }
]