[
    {
        "title": "Panicale",
        "subtitle": "Charming hilltop town in Umbria, Italy",
        "lat": 43.1009,
        "lon": 12.0886,
        "type": "town",
        "class": "place",
        "confidence": 0.95,
        "rank": 3,
        "page": 1,
        "hierarchy": [
            "Panicale",
            "Province of Perugia",
            "Umbria",
            "Italy"
        ]
    },
    {
        "title": "Perugia",
        "subtitle": "Historic capital city of the Umbria region, Italy",
        "lat": 43.1122,
        "lon": 12.3888,
        "type": "city",
        "class": "place",
        "confidence": 0.95,
        "rank": 4,
        "page": 2,
        "hierarchy": [
            "Perugia",
            "Province of Perugia",
            "Umbria",
            "Italy"
        ]
    },
    {
        "title": "Norcia",
        "subtitle": "Ancient walled town in Umbria, famous for its gastronomic traditions",
        "lat": 42.7937,
        "lon": 13.094,
        "type": "town",
        "class": "place",
        "confidence": 0.95,
        "rank": 3,
        "page": 3,
        "hierarchy": [
            "Norcia",
            "Province of Perugia",
            "Umbria",
            "Italy"
        ]
    },
    {
        "title": "Terni",
        "subtitle": "Industrial city in southern Umbria, known for Marmore Falls",
        "lat": 42.5647,
        "lon": 12.6465,
        "type": "city",
        "class": "place",
        "confidence": 0.95,
        "rank": 4,
        "page": 4,
        "hierarchy": [
            "Terni",
            "Province of Terni",
            "Umbria",
            "Italy"
        ]
    },
    {
        "title": "Trevi",
        "subtitle": "Medieval hill town in Umbria, surrounded by olive groves",
        "lat": 42.8778,
        "lon": 12.7505,
        "type": "town",
        "class": "place",
        "confidence": 0.95,
        "rank": 3,
        "page": 5,
        "hierarchy": [
            "Trevi",
            "Province of Perugia",
            "Umbria",
            "Italy"
        ]
    },
    {
        "title": "Todi",
        "subtitle": "Well-preserved medieval hill town in central Umbria",
        "lat": 42.7844,
        "lon": 12.4042,
        "type": "town",
        "class": "place",
        "confidence": 0.95,
        "rank": 3,
        "page": 6,
        "hierarchy": [
            "Todi",
            "Province of Perugia",
            "Umbria",
            "Italy"
        ]
    },
    {
        "title": "Castelluccio di Norcia",
        "subtitle": "High-altitude village in Umbria, known for its lentil crops and flowering plains",
        "lat": 42.825,
        "lon": 13.19,
        "type": "village",
        "class": "place",
        "confidence": 0.9,
        "rank": 3,
        "page": 7,
        "hierarchy": [
            "Castelluccio di Norcia",
            "Norcia",
            "Province of Perugia",
            "Umbria",
            "Italy"
        ]
    },
    {
        "title": "Lago Trasimeno",
        "subtitle": "Fourth largest lake in Italy, located in the Umbria region",
        "lat": 43.1333,
        "lon": 12.1333,
        "type": "lake",
        "class": "natural",
        "confidence": 0.95,
        "rank": 2,
        "page": 8,
        "hierarchy": [
            "Lago Trasimeno",
            "Umbria",
            "Italy"
        ]
    },
    {
        "title": "Spello",
        "subtitle": "Picturesque Roman hill town in Umbria, famous for flower festival",
        "lat": 42.9926,
        "lon": 12.6669,
        "type": "town",
        "class": "place",
        "confidence": 0.95,
        "rank": 3,
        "page": 9,
        "hierarchy": [
            "Spello",
            "Province of Perugia",
            "Umbria",
            "Italy"
        ]
    }
]