[
    {
        "title": "Isle of Mull",
        "subtitle": "Island in the Inner Hebrides, Scotland, known for wildlife and Duart Castle.",
        "lat": 56.4628,
        "lon": -6.0401,
        "type": "island",
        "class": "natural",
        "confidence": 0.95,
        "rank": 8,
        "page": 1,
        "hierarchy": [
            "Isle of Mull",
            "Argyll and Bute",
            "Scotland",
            "United Kingdom"
        ]
    },
    {
        "title": "Shetland Islands",
        "subtitle": "Archipelago in Scotland, northernmost UK, known for Viking heritage and wildlife.",
        "lat": 60.3905,
        "lon": -1.2589,
        "type": "archipelago",
        "class": "place",
        "confidence": 0.95,
        "rank": 8,
        "page": 2,
        "hierarchy": [
            "Shetland Islands",
            "Scotland",
            "United Kingdom"
        ]
    },
    {
        "title": "Isle of Harris",
        "subtitle": "Southern part of Lewis and Harris, Outer Hebrides, known for landscapes and beaches.",
        "lat": 57.8817,
        "lon": -6.8048,
        "type": "island",
        "class": "natural",
        "confidence": 0.95,
        "rank": 8,
        "page": 3,
        "hierarchy": [
            "Isle of Harris",
            "Outer Hebrides",
            "Scotland",
            "United Kingdom"
        ]
    },
    {
        "title": "Orkney Islands",
        "subtitle": "Archipelago north of mainland Scotland, rich in ancient history and Neolithic sites.",
        "lat": 59.0069,
        "lon": -3.0039,
        "type": "archipelago",
        "class": "place",
        "confidence": 0.95,
        "rank": 8,
        "page": 4,
        "hierarchy": [
            "Orkney Islands",
            "Scotland",
            "United Kingdom"
        ]
    },
    {
        "title": "Isle of Lewis",
        "subtitle": "Northern part of Lewis and Harris, Outer Hebrides, known for ancient history and Callanish Standing Stones.",
        "lat": 58.2104,
        "lon": -6.6575,
        "type": "island",
        "class": "natural",
        "confidence": 0.95,
        "rank": 8,
        "page": 5,
        "hierarchy": [
            "Isle of Lewis",
            "Outer Hebrides",
            "Scotland",
            "United Kingdom"
        ]
    }
]